FIPS,State,County,Population,% Less than 18 Years of Age,% 65 and Over,# Black,% Black,# American Indian or Alaska Native,% American Indian or Alaska Native,# Asian,% Asian,# Native Hawaiian or Other Pacific Islander,% Native Hawaiian or Other Pacific Islander,# Hispanic,% Hispanic,# Non-Hispanic White,% Non-Hispanic White,# Not Proficient in English,% Not Proficient in English,95% CI - Low,95% CI - High,% Female,# Rural Residents,% Rural,% foreign born,Income,Unemployment,Upward mobility,Life expectancy,Opioid issues,Prison,% subprime credit,,% not responding to census,Opioid issues?,% Limited Access to Healthy Foods,% Food Insecure,"Less than a high school diploma, 2017-21","High school diploma only, 2017-21","Some college or associate's degree, 2017-21","Bachelor's degree or higher, 2017-21",less_than_hs_edu,hs_edu,some_college_or_assoc_edu,bachelors_or_higher_edu,Longitude,Latitude,Percent_White
01001,Alabama,Autauga,59095,23.4,16,12251,20.7,271,0.5,711,1.2,70,0.1,1966,3.3,42817,72.5,127,0,0,1,51.4,22921,42,2.02,66444,2.30,38.4,-0.20,,,,,,,13,15,"4,126","12,977","11,367","11,144",10.40,32.80,28.70,28.10,-86.64289976,32.53514228,0.7572357289
01003,Alabama,Baldwin,239294,21.2,21.5,20024,8.4,1915,0.8,2686,1.1,164,0.1,11586,4.8,198970,83.1,1634,1,1,1,51.3,77060,42.3,3.45,65658,2.40,39.6,-1.30,,,,,,,8,12,"14,555","44,342","50,518","52,562",9.00,27.40,31.20,32.50,-87.72274477,30.72782468,0.8743539756
01005,Alabama,Barbour,24964,20.5,20,11832,47.4,181,0.7,115,0.5,58,0.2,1238,5,11310,45.3,331,1,1,2,46.7,18613,67.8,2.51,38649,4.10,36.1,3.50,,,32.78,,45.5,,10,20,"4,378","6,600","5,010","2,007",24.30,36.70,27.80,11.20,-85.39106787,31.87009042,0.4898531864
01007,Alabama,Bibb,22477,20.1,16.7,4794,21.3,113,0.5,62,0.3,29,0.1,694,3.1,16535,73.6,94,0,0,1,46,15663,68.4,1.44,48454,2.50,39.1,2.80,,Large state prison,36.24,,44,,0,16,"3,125","7,052","3,967","1,913",19.50,43.90,24.70,11.90,-87.12681433,32.99837607,0.7661727503
01009,Alabama,Blount,59041,23.1,18.7,964,1.6,390,0.7,238,0.4,73,0.1,5826,9.9,50970,86.3,957,2,1,2,50.2,51562,90,4.36,56894,2.20,42,2.20,,,,,,,3,14,"6,650","14,284","13,673","6,061",16.40,35.10,33.60,14.90,-86.5670064,33.98087061,0.9570137701
01011,Alabama,Bullock,10320,21.3,17.6,7042,68.2,97,0.9,31,0.3,79,0.8,936,9.1,2197,21.3,130,1,0,3,44.6,5607,51.4,0.93,32027,2.80,34.2,2.60,,,,,,,32,16,"1,540","2,841","1,692",804,22.40,41.30,24.60,11.70,-85.71572943,32.10045868,0.2682437851
01013,Alabama,Butler,18884,22.6,21.2,8435,44.7,82,0.4,269,1.4,8,0,327,1.7,9560,50.6,12,0,0,1,53.4,14921,71.2,1.37,39442,3.40,37.9,2.90,,,39.24,,44.2,,7,16,"1,932","6,050","3,523","1,879",14.40,45.20,26.30,14.00,-86.68040924,31.75252432,0.5208675144
01015,Alabama,Calhoun,115972,21.7,18.5,24706,21.3,623,0.5,1016,0.9,128,0.1,4915,4.2,82472,71.1,709,1,0,1,51.6,39955,33.7,2.66,48166,3.00,38.3,3.60,,,,,,,15,16,"11,867","27,783","24,939","15,674",14.80,34.60,31.10,19.50,-85.82574705,33.77141549,0.748362989
01017,Alabama,Chambers,34541,20.7,20.3,13849,40.1,134,0.4,326,0.9,19,0.1,1009,2.9,18879,54.7,66,0,0,1,52.1,16816,49.1,1.39,45447,2.60,35.4,2.60,,,34.48,,41.7,,8,15,"4,275","8,996","8,167","3,390",17.20,36.20,32.90,13.70,-85.39168915,32.91366622,0.5682336832
01019,Alabama,Cherokee,24996,18.9,24,1028,4.1,203,0.8,133,0.5,7,0,482,1.9,22764,91.1,300,1,0,2,50.2,22282,85.7,0.79,46365,2.30,37,2.40,,,,,,,5,14,"3,720","6,809","5,543","2,364",20.20,36.90,30.10,12.80,-85.60387066,34.17588713,0.9301361527
01021,Alabama,Chilton,45274,23.7,17.5,4473,9.9,287,0.6,224,0.5,78,0.2,3686,8.1,36157,79.9,986,2,1,3,50.7,37858,86.7,4.48,55142,2.30,40.3,2.00,,,,,,,4,16,"5,569","13,113","7,719","4,133",18.20,42.90,25.30,13.50,-86.71887934,32.84771004,0.8705092686
01023,Alabama,Choctaw,12533,20.1,23.7,5133,41,29,0.2,31,0.2,0,0,154,1.2,7070,56.4,30,0,0,1,52.4,13859,100,0.50,40601,3.80,40.5,2.20,,,,,,,13,17,"1,802","3,477","2,915","1,087",19.40,37.50,31.40,11.70,-88.26305322,32.02019311,0.5730391367
01025,Alabama,Clarke,22760,21.6,20.5,10235,45,134,0.6,103,0.5,6,0,334,1.5,11721,51.5,17,0,0,1,52.4,19628,76,0.38,45447,5.00,39.9,4.70,,,34.32,,48,,18,19,"2,892","6,740","4,378","2,259",17.80,41.40,26.90,13.90,-87.83077181,31.67695451,0.5271134773
01027,Alabama,Clay,14190,20.5,21.2,1935,13.6,80,0.6,38,0.3,0,0,465,3.3,11410,80.4,17,0,0,1,50.8,13932,100,1.95,47036,2.30,40.9,3.50,,,,,,,3,15,"1,694","3,813","3,128","1,334",17.00,38.20,31.40,13.40,-85.8607443,33.26966941,0.8327486272
01029,Alabama,Cleburne,15103,23.1,19.7,429,2.8,68,0.5,35,0.2,12,0.1,411,2.7,13962,92.4,76,1,0,1,50.7,14972,100,1.51,49769,2.40,43.9,2.10,,,,,,,2,16,"1,789","3,958","3,082","1,730",16.90,37.50,29.20,16.40,-85.51786948,33.67495934,0.948419857
01031,Alabama,Coffee,54174,23.9,17.1,8984,16.6,793,1.5,937,1.7,242,0.4,4791,8.8,37342,68.9,661,1,1,2,50.5,23573,47.2,3.59,55052,2.50,41,1.10,,,,,,,9,15,"4,934","10,108","12,919","8,202",13.60,28.00,35.70,22.70,-85.98828821,31.40188396,0.7569227879
01033,Alabama,Colbert,57474,21.2,20.3,9198,16,389,0.7,400,0.7,43,0.1,1937,3.4,44419,77.3,463,1,0,1,51.8,23891,43.9,1.66,53341,3.00,38.8,2.50,,,,,,,9,16,"5,333","15,244","12,600","7,213",13.20,37.70,31.20,17.90,-87.80463371,34.70085284,0.8019346339
01035,Alabama,Conecuh,11328,20.1,24.1,5101,45,71,0.6,34,0.3,4,0,312,2.8,5659,50,0,0,0,1,51.8,10708,80.9,0.71,35621,3.50,38.5,5.20,,,,,,,13,16,"1,077","4,200","2,309","1,079",12.40,48.50,26.60,12.50,-86.9938237,31.42899352,0.5154839254
01037,Alabama,Coosa,10450,16.2,24.7,3037,29.1,78,0.7,20,0.2,22,0.2,286,2.7,6907,66.1,0,0,0,1,49.2,11539,100,0.47,45954,2.50,37.9,2.50,,,,,,,8,14,"1,217","3,410","2,623",915,14.90,41.80,32.10,11.20,-86.24789409,32.9362956,0.6707981221
01039,Alabama,Covington,37524,22.1,21.7,4695,12.5,295,0.8,197,0.5,5,0,770,2.1,31005,82.6,6,0,0,0,51.5,26304,69.7,0.74,44188,2.60,43.4,3.50,,,,,,,5,16,"3,915","10,037","8,293","4,176",14.80,38.00,31.40,15.80,-86.45142629,31.24861005,0.8433793664
01041,Alabama,Crenshaw,13083,22.9,19.7,3076,23.5,96,0.7,162,1.2,6,0,322,2.5,9141,69.9,18,0,0,1,51,13906,100,1.95,38037,2.60,44,3.80,,,,,,,14,15,"1,742","3,882","2,133","1,524",18.80,41.80,23.00,16.40,-86.31341907,31.73169775,0.7195380455
01043,Alabama,Cullman,89496,22.4,18.7,1156,1.3,593,0.7,617,0.7,69,0.1,4185,4.7,81900,91.5,645,1,0,1,50.3,58889,73.2,2.41,55036,2.10,42.2,2.50,,,,,,,3,15,"9,560","19,624","21,400","9,979",15.80,32.40,35.30,16.50,-86.86718877,34.13183982,0.957936461
01045,Alabama,Dale,49342,23.2,17.7,10338,21,427,0.9,714,1.4,92,0.2,3596,7.3,33045,67,428,1,0,1,50.8,25572,50.9,3.32,50086,2.60,39.8,1.50,,,,,,,9,17,"5,093","10,376","11,859","6,278",15.20,30.90,35.30,18.70,-85.611081,31.43204363,0.7363916747
01047,Alabama,Dallas,37619,23.4,19.7,26554,70.6,116,0.3,214,0.6,16,0,443,1.2,9967,26.5,104,0,0,1,53.6,19999,45.6,1.32,33159,5.00,35.5,5.30,,,43.63,,,,9,20,"3,709","10,065","8,304","4,241",14.10,38.20,31.60,16.10,-87.10649231,32.32606741,0.2735054574
01049,Alabama,DeKalb,71813,24.1,17.7,1058,1.5,1504,2.1,368,0.5,460,0.6,11340,15.8,56734,79,2532,4,3,5,50.1,64091,90.1,7.48,45062,2.30,42.4,2.60,,,,,,,,16,"10,522","16,172","14,623","6,969",21.80,33.50,30.30,14.40,-85.80378574,34.46023769,0.9255910017
01051,Alabama,Elmore,89304,22,16.3,18998,21.3,445,0.5,685,0.8,100,0.1,2785,3.1,65026,72.8,488,1,0,1,51.3,42973,54.2,1.78,63147,2.20,39.1,1.10,,,,,,,5,13,"7,459","19,351","18,732","14,830",12.40,32.10,31.00,24.60,-86.14884036,32.59724126,0.755629397
01053,Alabama,Escambia,36699,22.6,18.4,11457,31.2,1363,3.7,117,0.3,28,0.1,972,2.6,22048,60.1,174,1,0,1,49.5,24337,63.5,0.98,40506,3.10,40.2,4.20,,,,,,,6,18,"4,697","11,249","6,543","3,227",18.30,43.70,25.40,12.50,-87.16176056,31.12613571,0.6205176263
01055,Alabama,Etowah,103162,21.7,19.3,16028,15.5,738,0.7,903,0.9,351,0.3,4779,4.6,79331,76.9,829,1,0,1,51.3,39144,37.5,2.89,46308,3.00,39.3,3.90,,,,,,,13,16,"10,014","24,491","24,986","13,067",13.80,33.80,34.40,18.00,-86.03476854,34.04518886,0.803928847
01057,Alabama,Fayette,16148,21.4,21.8,1809,11.2,82,0.5,85,0.5,0,0,338,2.1,13596,84.2,0,0,0,1,50.9,13833,80.2,0.92,46122,2.70,42.8,3.30,,,33.21,,41.6,,0,18,"1,951","4,714","3,472","1,361",17.00,41.00,30.20,11.80,-87.73924331,33.72117266,0.8565359276
01059,Alabama,Franklin,32013,24.9,17,1244,3.9,576,1.8,122,0.4,77,0.2,6086,19,23955,74.8,1251,4,3,6,49.9,22309,70.4,9.25,45440,2.30,42.6,2.70,,,,,,,6,15,"4,381","9,016","4,922","3,050",20.50,42.20,23.00,14.30,-87.843283,34.44238135,0.9145269305
01061,Alabama,Geneva,26701,21.8,21.1,2429,9.1,317,1.2,106,0.4,19,0.1,1245,4.7,22102,82.8,114,0,0,1,50.9,24015,89.6,1.53,43206,2.40,38.6,3.80,,,35.7,,43.3,,4,18,"3,294","6,879","6,103","2,538",17.50,36.60,32.40,13.50,-85.83932953,31.09486905,0.8687668017
01063,Alabama,Greene,7629,21.7,24.7,6045,79.2,37,0.5,27,0.4,0,0,147,1.9,1325,17.4,11,0,0,1,53.5,9045,100,0.09,30225,4.40,34.8,3.50,,,48.62,,,,23,22,861,"2,173","1,797",703,15.60,39.30,32.50,12.70,-87.95276818,32.853304,0.1819774718
01065,Alabama,Hale,14754,23.7,20.1,8461,57.3,49,0.3,50,0.3,6,0,230,1.6,5870,39.8,52,0,,,52.5,14053,89.2,0.58,41995,3.90,37.2,3.90,,,,,,,7,19,"1,890","3,943","2,664","1,593",18.70,39.10,26.40,15.80,-87.62930576,32.7625948,0.4054533061
01067,Alabama,Henry,17459,20.6,23.1,4308,24.7,92,0.5,93,0.5,3,0,476,2.7,12225,70,45,0,0,1,51.8,15183,87.8,1.08,56389,2.70,37.7,0.90,,,27.11,,49.3,,8,14,"2,280","3,931","3,358","2,633",18.70,32.20,27.50,21.60,-85.24094152,31.51487991,0.7187481856
01069,Alabama,Houston,107458,22.8,18.6,29442,27.4,610,0.6,1248,1.2,107,0.1,3917,3.6,70196,65.3,416,0,0,1,51.9,34327,33.8,2.27,48701,2.60,38.1,0.80,,,,,,,4,15,"9,006","23,633","24,570","16,350",12.20,32.10,33.40,22.20,-85.30251402,31.15295179,0.682886095
01071,Alabama,Jackson,52773,20.8,21,1775,3.4,848,1.6,327,0.6,73,0.1,1744,3.3,46844,88.8,265,1,0,1,50.6,40994,77,1.73,46998,2.50,42.1,3.10,,,,,,,5,17,"6,627","14,431","10,579","6,072",17.60,38.30,28.10,16.10,-85.99947584,34.77954231,0.9140979411
01073,Alabama,Jefferson,667820,22.9,16.7,290268,43.5,1923,0.3,12319,1.8,339,0.1,28530,4.3,326636,48.9,6857,1,1,1,52.5,64752,9.8,4.03,55210,2.60,36.2,2.30,,,,,,,13,14,"41,479","121,180","137,209","159,041",9.00,26.40,29.90,34.70,-86.89657084,33.5543433,0.527806855
01075,Alabama,Lamar,13689,21.4,22.5,1389,10.1,58,0.4,16,0.1,2,0,287,2.1,11746,85.8,9,0,0,1,50.5,14564,100,0.62,44265,2.70,44.3,1.10,,,,,,,0,17,"1,745","4,151","3,062",990,17.50,41.70,30.80,10.00,-88.09715315,33.77909349,0.8740918338
01077,Alabama,Lauderdale,94043,19.8,20.5,9143,9.7,459,0.5,866,0.9,70,0.1,2914,3.1,79171,84.2,705,1,0,1,51.7,45701,49.3,2.06,52222,2.60,42.2,0.50,,,,,,,6,14,"7,275","22,572","18,101","16,396",11.30,35.10,28.10,25.50,-87.65411658,34.9015002,0.8674063919
01079,Alabama,Lawrence,33090,21.9,19,3401,10.3,1947,5.9,83,0.3,7,0,869,2.6,25296,76.4,146,0,0,1,50.8,31348,91.3,0.98,55555,2.40,40.6,3.50,,,32.05,,36.5,,5,16,"3,912","9,642","6,211","3,568",16.80,41.30,26.60,15.30,-87.31085381,34.52223687,0.7836077548
01081,Alabama,Lee,177218,21,13.1,40171,22.7,642,0.4,7389,4.2,172,0.1,6974,3.9,119367,67.4,2154,1,1,2,50.7,38441,27.4,5.45,54188,2.40,36.7,-1.30,,,,,,,11,14,"9,095","23,254","32,377","40,727",8.60,22.10,30.70,38.60,-85.35522451,32.60106116,0.7070688301
01083,Alabama,Limestone,107517,22,15.5,14761,13.7,866,0.8,2078,1.9,183,0.2,6942,6.5,80756,75.1,1035,1,1,2,49.7,47690,57.6,3.70,69207,2.10,38.9,-0.70,,,,,,,6,13,"9,573","19,395","21,892","20,159",13.50,27.30,30.80,28.40,-86.98207203,34.81013487,0.8082912705
01085,Alabama,Lowndes,9965,22.3,20.3,7155,71.8,36,0.4,47,0.5,4,0,193,1.9,2489,25,4,0,0,1,52.8,11299,100,0.31,36993,5.20,34.7,6.10,,,37.25,,49.6,,20,20,"1,094","3,094","1,900","1,083",15.30,43.10,26.50,15.10,-86.65002353,32.1550404,0.2551602531
01087,Alabama,Macon,18895,17.4,21.5,14949,79.1,57,0.3,95,0.5,3,0,388,2.1,3209,17,1,0,0,1,54.5,11916,55.5,1.05,35354,3.80,33.7,5.10,,,43.8,,49.9,,22,16,"2,067","3,765","4,044","2,663",16.50,30.00,32.30,21.20,-85.69260703,32.38585029,0.1768650461
01089,Alabama,Madison,395211,21.7,15.5,95964,24.3,3089,0.8,10563,2.7,412,0.1,21621,5.5,253775,64.2,3889,1,1,1,50.6,55048,16.4,5.47,78386,2.10,37.1,-1.00,,,,,,,9,12,"21,084","50,364","74,888","116,323",8.00,19.20,28.50,44.30,-86.55056927,34.76292257,0.688280235
01091,Alabama,Marengo,18996,22.5,20.3,9738,51.3,50,0.3,71,0.4,34,0.2,561,3,8407,44.3,12,0,0,1,52.9,14575,69.3,0.45,42048,3.40,37.8,5.40,,,35.76,,52.5,,13,17,"1,750","4,653","4,071","2,570",13.40,35.70,31.20,19.70,-87.78920946,32.24794915,0.4643676934
01093,Alabama,Marion,29246,21,21.1,1230,4.2,143,0.5,99,0.3,23,0.1,784,2.7,26648,91.1,189,1,0,1,49.9,27346,88.9,1.25,44636,2.50,43.2,3.30,,,,,,,1,18,"3,921","7,472","6,963","2,649",18.70,35.60,33.10,12.60,-87.88740606,34.13691856,0.9383227283
01095,Alabama,Marshall,98228,25.6,17.2,2518,2.6,1164,1.2,762,0.8,379,0.4,15325,15.6,77557,79,3443,4,3,4,50.5,49550,53.3,6.56,50858,2.10,41.7,2.50,,,,,,,10,15,"10,675","20,178","20,053","13,852",16.50,31.20,31.00,21.40,-86.30615623,34.36690867,0.9266213012
01097,Alabama,Mobile,413073,23.4,17,149841,36.3,3908,0.9,8760,2.1,175,0,12800,3.1,231129,56,3313,1,1,1,52.3,82682,20,3.28,49848,3.20,37.4,2.00,,,,,,,10,16,"34,027","95,988","83,212","67,053",12.10,34.20,29.70,23.90,-88.20659057,30.77909854,0.5876534954
01099,Alabama,Monroe,19648,21,21.7,8063,41,268,1.4,92,0.5,8,0,330,1.7,10571,53.8,15,0,0,1,52.1,18234,79,0.63,40997,4.10,38.1,3.10,,,38.07,,51.7,,11,18,"2,440","6,205","3,435","1,787",17.60,44.70,24.80,12.90,-87.36529615,31.57107175,0.5512977174
01101,Alabama,Montgomery,227434,23.7,16,136611,60.1,715,0.3,7769,3.4,193,0.1,8795,3.9,70771,31.1,3149,1,1,2,52.8,24063,10.5,4.68,50645,3.10,34.3,1.20,,,39.13,,,,11,16,"18,715","39,384","43,541","50,876",12.30,25.80,28.50,33.40,-86.20787706,32.22089414,0.3472193163
01103,Alabama,Morgan,123668,23.1,18.1,15969,12.9,1375,1.1,855,0.7,186,0.2,11091,9,92006,74.4,2312,2,2,2,50.6,46120,38.6,4.24,56340,2.10,38.8,2.20,,,,,,,8,14,"12,983","26,406","26,088","19,291",15.30,31.20,30.80,22.80,-86.85325062,34.45331009,0.8263556968
01105,Alabama,Perry,8355,20.5,20.6,5634,67.4,32,0.4,51,0.6,7,0.1,133,1.6,2438,29.2,0,0,0,1,53.5,10591,100,1.51,31522,5.30,36,5.60,,,44.54,,61,,28,23,"1,188","2,229","1,092","1,051",21.40,40.10,19.60,18.90,-87.29424703,32.63859284,0.3066651318
01107,Alabama,Pickens,18801,19.2,19.5,7449,39.6,55,0.3,70,0.4,68,0.4,1040,5.5,9990,53.1,339,2,1,3,49.8,19746,100,3.27,43926,3.30,37.7,2.50,,,35.93,,45.2,,1,19,"2,332","5,903","3,851","1,854",16.70,42.30,27.60,13.30,-88.08923504,33.28058298,0.5782347294
01109,Alabama,Pike,32991,19.3,15.9,12546,38,233,0.7,574,1.7,27,0.1,806,2.4,18293,55.4,252,1,0,1,52.1,17002,51.7,4.30,38945,2.70,40,2.50,,,37.2,,54.5,,10,15,"2,465","7,035","4,515","5,384",12.70,36.30,23.30,27.80,-85.94087373,31.80232564,0.5730146211
01111,Alabama,Randolph,21989,21.1,21.3,4108,18.7,116,0.5,114,0.5,23,0.1,648,2.9,16658,75.8,37,0,0,1,51.4,18638,81.3,1.59,45889,2.50,38.2,2.50,,,33.24,,48.1,,13,15,"3,039","5,304","4,566","2,500",19.70,34.40,29.60,16.20,-85.45918107,33.29354361,0.7827661431
01113,Alabama,Russell,58722,24.3,15.1,26686,45.4,388,0.7,473,0.8,169,0.3,3472,5.9,26324,44.8,508,1,0,2,52.3,18748,35.4,2.54,44849,2.60,35.7,3.00,,,,,,,7,17,"5,881","11,774","15,342","6,886",14.70,29.50,38.50,17.30,-85.18428296,32.28806204,0.4954410426
01115,Alabama,St. Clair,92748,22.5,17.4,9482,10.2,363,0.4,834,0.9,84,0.1,2420,2.6,78313,84.4,197,0,0,0,50.3,60853,72.8,1.72,63015,2.20,40.8,1.70,,,,,,,2,13,"8,873","22,302","20,529","11,730",14.00,35.20,32.40,18.50,-86.31476905,33.71540022,0.8710587509
01117,Alabama,Shelby,226902,22.8,16.5,31548,13.9,924,0.4,5420,2.4,123,0.1,13553,6,172572,76.1,2605,1,1,2,51.4,44762,22.9,5.28,85457,1.80,40.4,-3.90,,,,,,,6,10,"9,632","29,933","43,839","67,668",6.40,19.80,29.00,44.80,-86.66137476,33.26405258,0.8202485684
01119,Alabama,Sumter,12164,19.5,19.9,8567,70.4,20,0.2,209,1.7,4,0,176,1.4,3079,25.3,45,0,0,1,53.9,13763,100,2.06,29490,3.50,35.7,4.50,,,,,,,11,19,982,"2,588","2,644","1,502",12.70,33.50,34.30,19.50,-88.19904039,32.59104949,0.2622494888
01121,Alabama,Talladega,81524,20.7,18.9,26809,32.9,329,0.4,471,0.6,19,0,2108,2.6,50480,61.9,436,1,0,1,51.5,45931,55.8,1.73,47331,3.10,37.4,3.50,,,,,,,8,17,"9,813","19,830","18,582","9,138",17.10,34.60,32.40,15.90,-86.16587666,33.37992421,0.6394323936
01123,Alabama,Tallapoosa,41023,20.3,22.8,10887,26.5,173,0.4,234,0.6,20,0,1070,2.6,28182,68.7,291,1,0,1,51.3,30890,74.2,1.47,47444,2.90,38,2.50,,,,,,,3,16,"5,432","9,300","9,406","5,322",18.40,31.60,31.90,18.10,-85.79746538,32.86280802,0.703585578
01125,Alabama,Tuscaloosa,227007,21.1,14.2,74085,32.6,775,0.3,3803,1.7,156,0.1,9488,4.2,136300,60,1829,1,1,1,51.8,49653,25.5,3.66,56274,2.50,37.3,0.60,,,,,,,7,14,"14,563","41,868","41,083","43,086",10.40,29.80,29.20,30.60,-87.52558359,33.28952146,0.6374514846
01127,Alabama,Walker,64818,22.4,19.8,3919,6,353,0.5,336,0.5,69,0.1,1913,3,57338,88.5,307,1,0,1,51,49656,74.1,1.40,46343,2.80,41.1,6.80,,,,,,,4,17,"8,033","15,674","15,264","6,391",17.70,34.60,33.60,14.10,-87.29727889,33.80316281,0.9091585766
01129,Alabama,Washington,15147,21.4,20.1,3454,22.8,1198,7.9,125,0.8,21,0.1,263,1.7,9889,65.3,2,0,0,1,51,17581,100,1.05,49795,3.60,43.1,1.10,,,33.58,,53,,4,15,"1,498","4,606","3,258","1,469",13.80,42.50,30.10,13.60,-88.20819419,31.40759248,0.6638708062
01131,Alabama,Wilcox,10446,22.8,21.2,7265,69.5,24,0.2,28,0.3,2,0,161,1.5,2839,27.2,32,0,,,52.9,11670,100,0.54,30071,7.80,35.1,6.60,,,,,,,24,22,"1,485","2,806","2,078",785,20.80,39.20,29.00,11.00,-87.30786547,31.98928301,0.2781697041
01133,Alabama,Winston,23652,20.4,22.2,239,1,198,0.8,90,0.4,49,0.2,783,3.3,22066,93.3,217,1,0,2,50.6,20785,84.9,1.08,47176,2.40,41.1,1.60,,,,,,,2,17,"3,520","6,590","4,616","2,290",20.70,38.70,27.10,13.50,-87.37341176,34.14959585,0.9594180704
02013,Alaska,Aleutians East,3398,7.2,11.7,318,9.4,674,19.8,1424,41.9,36,1.1,548,16.1,315,9.3,294,9,5,12,33,3141,100,32.6423358,71492,2.00,,-36.10,,,,,,,15,10,397,"1,080",707,414,15.30,41.60,27.20,15.90,-161.9642606,55.36032516,0.2140546898
02016,Alaska,Aleutians West,5059,12.1,8.2,343,6.8,603,11.9,1979,39.1,170,3.4,745,14.7,1131,22.4,360,7,,,32.6,5561,100,39.6521739,86050,3.10,,-15.10,,,,,,,8,10,344,"1,664","1,185",645,9.00,43.40,30.90,16.80,-110.2449123,52.79430361,0.3272887324
02020,Alaska,Anchorage,288121,23.9,12.5,14883,5.2,26655,9.3,28974,10.1,9277,3.2,27833,9.7,161468,56,5590,2,,,48.8,12015,4.1,10.694602,86152,3.30,44.1,-2.30,,,,,,,5,10,"11,299","45,842","65,086","71,085",5.80,23.70,33.70,36.80,-149.1118883,61.15068906,0.6304603006
02050,Alaska,Bethel,18557,35.8,8.4,194,1,15695,84.6,189,1,42,0.2,391,2.1,1586,8.5,242,1,1,2,47.7,12579,73.9,2.03436807,54849,8.80,34.1,5.70,,,,,,,40,20,"1,808","4,674","2,267","1,276",18.00,46.60,22.60,12.70,-159.8255997,60.91342739,0.09838910886
02060,Alaska,Bristol Bay,838,21.2,17.7,6,0.7,281,33.5,21,2.5,2,0.2,82,9.8,326,38.9,0,0,0,6,46.1,997,100,1.91011236,88516,4.30,,,,,,,,,12,11,34,194,273,142,5.30,30.20,42.50,22.10,-156.7026695,58.74220214,0.421319797
02068,Alaska,Denali,1593,17.5,12.8,49,3.1,96,6,84,5.3,1,0.1,71,4.5,1210,76,10,0,0,3,45.4,1826,100,10.1702509,85251,6.30,,-12.70,,,,,,,33,16,27,504,472,653,1.60,30.40,28.50,39.40,-150.0094238,63.67343339,0.8173954829
02070,Alaska,Dillingham,4772,31.7,11.1,38,0.8,3478,72.9,48,1,12,0.3,168,3.5,656,13.7,78,2,1,3,48.3,4847,100,2.87437186,58389,5.60,,6.20,,,,,,,31,15,388,"1,151",780,564,13.50,39.90,27.10,19.60,-158.2141634,59.79832305,0.152907097
02090,Alaska,Fairbanks North Star,95593,23.5,11.9,4477,4.7,7800,8.2,3291,3.4,593,0.6,7991,8.4,65869,68.9,558,1,0,1,45.9,30124,30.9,5.15388398,76754,3.70,45,-3.80,,,,,,,8,9,"3,393","15,698","22,276","19,976",5.50,25.60,36.30,32.60,-146.5623662,64.8083752,0.7533428819
02100,Alaska,Haines,2071,17.8,24.1,14,0.7,208,10,25,1.2,0,0,81,3.9,1591,76.8,1,0,0,3,48.8,2508,100,6.5528197,63155,6.60,,-8.00,,,,,,,10,17,33,564,467,367,2.30,39.40,32.60,25.60,-135.5024208,59.11793896,0.8041315991
02105,Alaska,Hoonah-Angoon,2332,17.5,25.6,46,2,864,37,17,0.7,2,0.1,160,6.9,1099,47.1,7,0,0,2,45.2,,,6.51969981,56555,5.60,,-7.90,,,,,,,31,14,119,694,664,425,6.30,36.50,34.90,22.30,-135.6386611,58.28575804,
02110,Alaska,Juneau,31973,20.6,15.2,417,1.3,3819,11.9,2250,7,401,1.3,2278,7.1,20386,63.8,362,1,1,2,49.1,6738,21.5,8.92050727,89922,2.80,41.7,-4.70,,,,,,,2,9,"1,049","4,791","7,842","9,145",4.60,21.00,34.40,40.10,-134.1764399,58.45091866,0.6820622312
02122,Alaska,Kenai Peninsula,59767,22.2,19.4,471,0.8,4814,8.1,1160,1.9,189,0.3,2725,4.6,47401,79.3,87,0,0,0,47.6,43953,79.3,3.11920302,71111,4.50,47.3,-2.80,,,,,,,8,13,"2,497","12,743","14,742","11,296",6.00,30.90,35.70,27.40,-151.5611779,60.2537748,0.8282896287
02130,Alaska,Ketchikan Gateway,13754,20.6,17.7,124,0.9,1953,14.2,1143,8.3,51,0.4,783,5.7,8651,62.9,125,1,0,2,48.6,3125,23.2,8.40,73260,3.80,43.8,-3.80,,,16.52,,44.9,,0,12,591,"2,829","3,795","2,586",6.00,28.90,38.70,26.40,-130.9369511,55.58672276,0.6676365753
02150,Alaska,Kodiak Island,12787,23.9,13.2,157,1.2,1638,12.8,3012,23.6,105,0.8,1118,8.7,6135,48,831,7,5,9,46.2,4257,31.3,19.3933622,80863,4.30,45.7,-4.10,,,15.71,,56.9,,11,10,847,"2,508","2,953","2,599",9.50,28.20,33.20,29.20,-153.7750279,57.66653702,0.5367918719
02158,Alaska,Kusilvak,8360,42,6.8,28,0.3,7701,92.1,41,0.5,3,0,137,1.6,259,3.1,28,0,0,1,46.8,,,1.08563064,38203,12.90,,8.70,,,,,,,,27,833,"2,266",857,119,20.40,55.60,21.00,2.90,#N/A,#N/A,0.03266090298
02164,Alaska,Lake and Peninsula,1416,28.6,12.4,15,1.1,842,59.5,42,3,8,0.6,43,3,320,22.6,9,1,0,6,48.9,1631,100,2.83636364,51205,5.80,,,,,,,,,42,15,68,258,167,141,10.70,40.70,26.30,22.20,-156.1888735,58.63664843,0.2344273275
02170,Alaska,Matanuska-Susitna,110686,26.2,13.2,1328,1.2,7716,7,1854,1.7,540,0.5,6198,5.6,86101,77.8,676,1,0,1,48,44759,50.3,3.60028609,80164,4.60,47.7,-2.60,,,,,,,8,11,"4,384","23,039","25,821","16,552",6.30,33.00,37.00,23.70,-149.5691006,62.31571716,0.820992079
02180,Alaska,Nome,9865,34,8.7,71,0.7,7488,75.9,159,1.6,19,0.2,219,2.2,1372,13.9,30,0,0,1,47.3,6270,66.1,2.87153652,65578,6.90,30.7,6.10,,,,,,,15,17,695,"2,451","1,443","1,033",12.40,43.60,25.70,18.40,-164.0315808,64.91040617,0.146129781
02185,Alaska,North Slope,10972,27.8,7.9,166,1.5,6057,55.2,643,5.9,207,1.9,465,4.2,3066,27.9,136,1,0,3,38.5,5595,59.3,5.86,95041,5.00,31.2,0.20,,,38.27,,72.2,,7,11,865,"2,904","2,145","1,093",12.30,41.40,30.60,15.60,-153.4702536,69.31507516,0.2993329029
02188,Alaska,Northwest Arctic,7560,36.3,8.3,92,1.2,6026,79.7,81,1.1,18,0.2,198,2.6,756,10,17,0,0,1,46,4323,57.5,1.25420222,67586,9.00,31.3,5.10,,,,,,,29,18,673,"2,020",978,619,15.70,47.10,22.80,14.40,-159.724644,67.05555844,0.1130298273
02195,Alaska,Petersburg,3356,21.5,21.4,59,1.8,357,10.6,175,5.2,28,0.8,183,5.5,2342,69.8,207,6,2,11,48.3,,,11.0291859,71878,5.80,,-4.20,,,,,,,1,11,216,788,813,721,8.50,31.00,32.00,28.40,-132.9333517,57.11988808,0.7236043689
02198,Alaska,Prince of Wales-Hyder,5729,21.4,19.9,34,0.6,2382,41.6,103,1.8,30,0.5,239,4.2,2543,44.4,9,0,0,1,45.1,,,2.68767377,56226,5.50,,0.00,,,,,,,9,17,319,"1,588","1,464",801,7.60,38.10,35.10,19.20,-133.0585096,55.81638031,0.4616886286
02220,Alaska,Sitka,8407,20.3,17.2,67,0.8,1325,15.8,659,7.8,31,0.4,636,7.6,5164,61.4,85,1,0,2,48.8,1854,20.9,7.93087663,78248,2.80,38,-4.50,,,,,,,6,10,316,"1,546","2,202","2,024",5.20,25.40,36.20,33.20,-135.3151746,57.23393263,0.6542534206
02230,Alaska,Skagway,1132,14.4,16.7,18,1.6,65,5.7,33,2.9,4,0.4,76,6.7,891,78.7,19,2,0,5,46.7,,,6.7860509,65712,6.70,,,,,,,,,0,17,101,356,339,266,9.50,33.50,31.90,25.00,-135.3374592,59.55833766,
02240,Alaska,Southeast Fairbanks,6970,26.7,15.2,121,1.7,818,11.7,181,2.6,71,1,505,7.2,5020,72,95,1,0,3,44.9,7029,100,9.88947062,68347,5.20,50.7,-0.80,,,,,,,10,12,332,"1,704","1,570",865,7.40,38.10,35.10,19.30,-143.2069204,63.87695823,0.7668535288
02261,Alaska,Valdez-Cordova,9571,23.2,16.6,76,0.8,1339,14,537,5.6,64,0.7,582,6.1,6430,67.2,51,1,,,46.3,9636,100,6.3326524,,,45.9,-1.60,,,,,,,10,,,,,,,,,,-144.5019516,61.54964404,
02275,Alaska,Wrangell,2055,19.8,25.1,13,0.6,336,16.4,71,3.5,1,0,73,3.6,1308,63.6,5,0,0,2,46.9,,,5.07246377,64732,5.10,,-2.80,,,,,,,5,,238,578,510,237,15.20,37.00,32.60,15.20,-132.0310434,56.32537949,
02282,Alaska,Yakutat,704,20.3,19.6,14,2,266,37.8,51,7.2,7,1,46,6.5,226,32.1,6,1,0,11,43.2,662,100,7.83744557,73014,5.10,,,,,,,,,0,,21,173,154,40,5.40,44.60,39.70,10.30,-140.349186,59.88824845,0.3485086342
02290,Alaska,Yukon-Koyukuk,5275,28.1,16.7,42,0.8,3651,69.2,31,0.6,9,0.2,158,3,1124,21.3,2,0,0,1,46.7,5588,100,1.42197599,44934,7.90,41.9,3.90,,,,,,,43,,448,"1,471","1,111",449,12.90,42.30,31.90,12.90,-151.3897031,65.50922918,0.2265117195
04001,Arizona,Apache,65623,26.6,16.3,335,0.5,48905,74.5,282,0.4,41,0.1,4676,7.1,11862,18.1,3444,6,5,6,50.4,52967,74.1,1.66522189,41002,7.70,34.6,6.30,,,,,,,35,,"7,549","13,150","16,229","5,434",17.80,31.00,38.30,12.80,-109.488754,35.39559896,0.2245426087
04003,Arizona,Cochise,126050,21.1,23.7,4929,3.9,2431,1.9,2789,2.2,524,0.4,45221,35.9,68578,54.4,4332,4,3,4,48.8,47680,36.3,11.0049969,55748,4.40,42.9,-1.80,,,,,,,16,,"9,897","21,308","33,661","22,569",11.30,24.40,38.50,25.80,-109.7510129,31.87959362,0.8747116516
04005,Arizona,Coconino,145052,19.9,14.1,1793,1.2,39918,27.5,3039,2.1,264,0.2,21665,14.9,77625,53.5,2664,2,2,2,50.6,42297,31.5,4.84463368,63829,4.30,39.5,-1.60,,,,,,,13,,"7,786","18,341","26,678","33,393",9.00,21.30,30.90,38.70,-111.7705493,35.83875351,0.658087745
04007,Arizona,Gila,53589,19.4,29.9,320,0.6,9821,18.3,508,0.9,102,0.2,10271,19.2,32871,61.3,509,1,1,2,49.9,22008,41.1,3.76029963,52665,4.20,38.2,3.70,,,,,,,11,,"5,131","11,192","15,587","7,382",13.10,28.50,39.70,18.80,-110.8119677,33.79996932,0.7835110399
04009,Arizona,Graham,39050,26.4,14.1,598,1.5,5100,13.1,311,0.8,94,0.2,13185,33.8,19858,50.9,503,1,1,2,46.2,17284,46.4,3.6246997,52644,3.60,44.7,-0.60,,,,,,,16,,"3,980","7,123","9,414","3,529",16.60,29.60,39.10,14.70,-109.8875198,32.93295414,0.8204330417
04011,Arizona,Greenlee,9404,27.4,14.5,146,1.6,428,4.6,89,0.9,11,0.1,4607,49,4140,44,95,1,0,2,47.8,3929,46.6,3.18813131,71669,2.90,44.4,-3.50,,,,,,,14,,710,"1,877","2,253",922,12.30,32.60,39.10,16.00,-109.2401561,33.21537146,0.8990472112
04012,Arizona,La Paz,16408,16.2,40.8,148,0.9,3018,18.4,194,1.2,46,0.3,4695,28.6,9105,55.5,544,3,2,5,48.5,11541,56.3,10.9801459,44330,4.70,37.2,-1.30,,,,,,,26,,"2,110","4,476","5,038","1,558",16.00,34.00,38.20,11.80,-113.981207,33.7291609,0.7641061453
04013,Arizona,Maricopa,4496588,23,15.8,261654,5.8,132593,2.9,216046,4.8,13419,0.3,1436701,32,2402232,53.4,177830,4,,,50.3,90229,2.4,14.8791242,76230,3.30,40.7,-3.20,,,,,,,6,,"326,737","644,940","950,635","1,006,096",11.20,22.00,32.50,34.40,-112.4908888,33.34875974,0.8231743444
04015,Arizona,Mohave,217692,16.5,31.7,2558,1.2,6697,3.1,3014,1.4,597,0.3,38530,17.7,164719,75.7,3234,2,1,2,49.2,45970,23,6.7396537,48169,4.50,40.4,0.90,,,,,,,19,,"20,437","55,859","62,716","23,817",12.60,34.30,38.50,14.60,-113.7581706,35.70456821,0.914454481
04017,Arizona,Navajo,108147,25.8,19.3,915,0.8,48192,44.6,752,0.7,200,0.2,13102,12.1,45451,42,2552,3,2,3,49.6,58171,54.1,2.91062969,49057,5.20,35.8,5.00,,,,,,,26,,"10,766","20,551","26,746","11,611",15.50,29.50,38.40,16.70,-110.3213121,35.39960537,0.5079563294
04019,Arizona,Pima,1052030,20.3,20.7,37321,3.5,46911,4.5,35071,3.3,2624,0.2,404972,38.5,528655,50.3,34924,4,3,4,50.5,73750,7.5,12.96775,60604,3.80,39,-2.10,,,,,,,9,,"74,468","149,641","234,802","240,377",10.60,21.40,33.60,34.40,-111.7896381,32.09723099,0.8454731783
04021,Arizona,Pinal,449557,22.1,21,22696,5,29127,6.5,8886,2,1913,0.4,141248,31.4,247464,55,11247,3,2,3,48,82311,21.9,9.18753172,70835,3.90,36.1,-5.40,,,,,,,14,,"36,411","89,200","106,188","61,217",12.40,30.40,36.20,20.90,-111.34488,32.90415087,0.8236022029
04023,Arizona,Santa Cruz,47883,26.2,19.2,239,0.5,719,1.5,423,0.9,65,0.1,39577,82.7,7410,15.5,8893,20,18,22,51.4,12748,26.9,32.1226172,49216,7.50,43,-4.80,,,,,,,18,,"6,757","7,913","8,697","6,994",22.30,26.10,28.60,23.00,-110.8466869,31.52598116,0.9549222355
04025,Arizona,Yavapai,242253,15.7,33.7,1883,0.8,5327,2.2,3210,1.3,413,0.2,37179,15.3,192148,79.3,3779,2,1,2,50.8,70057,33.2,6.25698324,57676,3.50,43.2,-2.00,,,,,,,13,,"15,280","45,486","69,858","50,231",8.40,25.20,38.60,27.80,-112.5538467,34.59969928,0.9311315178
04027,Arizona,Yuma,206990,25.1,19.6,3889,1.9,5151,2.5,3190,1.5,556,0.3,135493,65.5,60497,29.2,27233,14,13,15,48.2,20416,10.4,26.7046466,55991,12.50,44,-4.10,,,,,,,10,,"32,441","34,441","42,131","20,286",25.10,26.60,32.60,15.70,-113.9058099,32.76933672,0.9106618187
05001,Arkansas,Arkansas,16722,23.5,20.2,4150,24.8,79,0.5,137,0.8,11,0.1,649,3.9,11412,68.2,53,0,0,1,51.5,6601,34.7,0.74486868,50928,3.30,39.8,3.50,,,35.06,,49.3,,24,,"1,596","5,020","3,385","1,987",13.30,41.90,28.20,16.60,-91.37520643,34.29076839,0.7120174884
05003,Arkansas,Ashley,18674,22.7,21.2,4446,23.8,166,0.9,63,0.3,20,0.1,1180,6.3,12676,67.9,237,1,1,2,51.1,11294,51.7,2.70730876,44030,5.50,38.6,2.60,,,36.15,,47.4,,9,,"1,988","6,823","2,988","1,612",14.80,50.90,22.30,12.00,-91.76814114,33.19120398,0.7279590465
05005,Arkansas,Baxter,42144,18,30.6,204,0.5,368,0.9,259,0.6,39,0.1,1171,2.8,39555,93.9,27,0,0,0,51.2,27333,65.8,1.78315825,45116,3.60,43.5,0.30,,,,,,,6,,"3,593","10,992","11,191","5,892",11.30,34.70,35.30,18.60,-92.33686558,36.28715062,0.9643246058
05007,Arkansas,Benton,293692,25.7,13.6,5588,1.9,5595,1.9,13665,4.7,2381,0.8,51748,17.6,209445,71.3,9531,4,,,49.9,55689,25.2,11.3410302,78974,2.40,44,-3.10,,,,,,,7,,"18,811","53,695","47,163","63,211",10.30,29.40,25.80,34.60,-94.25598718,36.33873798,0.8786836765
05009,Arkansas,Boone,37830,22.8,20.8,174,0.5,370,1,257,0.7,32,0.1,1153,3,35234,93.1,81,0,0,1,50.5,22953,62.2,0.96545806,48700,2.90,44.8,0.30,,,,,,,9,,"2,849","8,849","9,820","4,648",10.90,33.80,37.50,17.80,-93.09137415,36.30874792,0.9579534884
05011,Arkansas,Bradley,10408,24.6,19,2823,27.1,178,1.7,54,0.5,8,0.1,1717,16.5,5622,54,183,2,1,3,51.2,5707,49.6,6.69528681,40454,5.00,40.7,4.20,,,30.77,,54.4,,10,,"1,151","3,111","2,081",908,15.90,42.90,28.70,12.50,-92.16229542,33.46613806,0.6822069743
05013,Arkansas,Calhoun,4741,18.7,21.7,958,20.2,38,0.8,12,0.3,1,0,226,4.8,3419,72.1,39,1,0,2,48.9,5368,100,0.57670127,49977,3.10,,3.50,,,,,,,25,,543,"1,490",984,421,15.80,43.30,28.60,12.20,-92.50253376,33.55786388,0.75924115
05015,Arkansas,Carroll,28435,21.7,23.9,182,0.6,420,1.5,742,2.6,404,1.4,4458,15.7,21888,77,1087,4,3,5,49.9,19990,72.8,8.58823108,49225,2.90,44.4,0.30,,,,,,,7,,"2,948","7,009","5,585","4,389",14.80,35.20,28.00,22.00,-93.53832319,36.34107901,0.917032112
05017,Arkansas,Chicot,10019,22.1,22,5295,52.8,60,0.6,79,0.8,4,0,654,6.5,3869,38.6,124,1,0,2,48.8,6405,54.3,2.06909292,34857,6.20,35.1,4.20,,,,,,,16,,"1,537","2,725","1,802","1,050",21.60,38.30,25.30,14.80,-91.29365079,33.2673446,0.4331922612
05019,Arkansas,Clark,21321,19.6,16.7,4979,23.4,147,0.7,159,0.7,101,0.5,1078,5.1,14545,68.2,174,1,0,2,52,12504,54.4,2.79651552,47158,4.50,41,1.10,,,33.77,,46.6,,11,,"1,193","4,037","3,859","3,516",9.50,32.00,30.60,27.90,-93.17667235,34.05108285,0.7227978103
05021,Arkansas,Clay,14350,21.7,21.4,136,0.9,92,0.6,34,0.2,4,0,342,2.4,13538,94.3,0,0,0,1,50.3,9466,58.9,0.76356152,41419,4.00,42.3,3.40,,,,,,,7,,"1,625","4,430","2,844","1,448",15.70,42.80,27.50,14.00,-90.41718919,36.36822542,0.9665391304
05023,Arkansas,Cleburne,25015,19.1,27.1,129,0.5,206,0.8,131,0.5,10,0,746,3,23428,93.7,60,0,0,1,50.4,19613,75.5,1.42687277,50200,4.20,46.8,1.20,,,,,,,7,,"2,176","7,850","5,344","3,144",11.80,42.40,28.90,17.00,-92.02725586,35.53853919,0.9640665731
05025,Arkansas,Cleveland,7514,21.7,21.3,822,10.9,48,0.6,18,0.2,4,0.1,212,2.8,6302,83.9,0,0,0,1,50.6,8689,100,1.60466813,53705,3.90,40.2,1.30,,,,,,,8,,514,"2,584","1,509",924,9.30,46.70,27.30,16.70,-92.18489948,33.89823609,0.8632650496
05027,Arkansas,Columbia,22672,21.3,17.3,7915,34.9,140,0.6,205,0.9,12,0.1,697,3.1,13439,59.3,185,1,0,2,51.6,14114,57.5,1.97555667,44651,4.40,39.6,2.50,,,39.26,,49,,9,,"1,824","5,590","3,805","2,832",13.00,39.80,27.10,20.20,-93.22737493,33.2142428,0.6129612961
05029,Arkansas,Conway,20873,22.6,19.9,2385,11.4,189,0.9,118,0.6,12,0.1,920,4.4,16820,80.6,191,1,0,2,50.7,15001,70.5,2.26729169,47741,3.70,42.9,1.10,,,25.24,,38.6,,10,,"1,706","5,896","4,093","2,686",11.90,41.00,28.50,18.70,-92.70098811,35.26227905,0.8464609973
05031,Arkansas,Craighead,112218,25,14,19357,17.2,644,0.6,1514,1.3,77,0.1,6190,5.5,82754,73.7,711,1,0,1,51.3,31024,32.2,4.16079318,52490,2.80,41.2,0.30,,,,,,,9,,"7,292","23,151","19,662","20,412",10.30,32.80,27.90,28.90,-90.63270647,35.8310138,0.7890952826
05033,Arkansas,Crawford,60378,24.2,17.6,940,1.6,1696,2.8,954,1.6,50,0.1,5248,8.7,49984,82.8,743,1,1,2,50.6,32189,52,3.73287233,54065,3.20,41,0.00,,,,,,,13,,"6,161","13,947","12,959","7,792",15.10,34.10,31.70,19.10,-94.24296995,35.588841,0.9060070337
05035,Arkansas,Crittenden,47525,27.1,14.6,26161,55,221,0.5,335,0.7,30,0.1,1466,3.1,18798,39.6,115,0,0,1,52.3,10632,20.9,1.65,43821,4.00,33.5,4.20,,,45.38,,,,11,,"4,784","10,940","9,749","5,392",15.50,35.40,31.60,17.50,-90.30924635,35.20762172,0.4231350806
05037,Arkansas,Cross,16681,23.8,18.8,3859,23.1,81,0.5,146,0.9,11,0.1,380,2.3,11962,71.7,94,1,0,2,51.4,10148,56.8,0.42357925,45262,3.70,39,4.30,,,38.02,,44,,15,,"2,138","4,907","3,051","1,651",18.20,41.80,26.00,14.10,-90.77181286,35.29547453,0.7353487796
05039,Arkansas,Dallas,6308,21,25.3,2515,39.9,51,0.8,26,0.4,6,0.1,266,4.2,3337,52.9,4,0,,,50.6,4272,52.6,0.87459634,42442,4.00,37.1,2.60,,,,,,,27,,571,"2,108","1,445",536,12.30,45.20,31.00,11.50,-92.65420664,33.96953994,0.5560129374
05041,Arkansas,Desha,11090,25.3,19.8,5227,47.1,60,0.5,107,1,16,0.1,778,7,4785,43.1,265,2,1,4,53.1,4087,31.4,3.93707412,39042,5.30,36.4,4.20,,,,,,,17,,"1,477","3,415","1,779","1,057",19.10,44.20,23.00,13.70,-91.2539449,33.83346926,0.4834383438
05043,Arkansas,Drew,17110,21.9,18.2,4748,27.7,108,0.6,141,0.8,8,0,671,3.9,11252,65.8,13,0,0,1,51.1,8997,48.6,1.18906064,46572,4.40,38.1,2.40,,,36.36,,45.7,,9,,"1,456","4,090","2,972","2,652",13.00,36.60,26.60,23.70,-91.71972855,33.58957425,0.6928853535
05045,Arkansas,Faulkner,125106,22.8,13.2,15451,12.4,880,0.7,1635,1.3,106,0.1,5658,4.5,98879,79,898,1,0,1,51.2,43891,38.8,3.20301268,57573,2.90,43.3,0.10,,,,,,,12,,"5,268","23,020","23,023","25,155",6.90,30.10,30.10,32.90,-92.33201857,35.14732521,0.8329722106
05047,Arkansas,Franklin,17173,22.7,20,145,0.8,291,1.7,196,1.1,37,0.2,635,3.7,15601,90.8,16,0,0,1,50,14972,82.6,1.78290214,47834,3.30,45.4,2.40,,,,,,,2,,"1,596","4,911","4,045","1,251",13.50,41.60,34.30,10.60,-93.89070916,35.51229968,0.9444040901
05049,Arkansas,Fulton,12145,21.4,25.9,95,0.8,120,1,38,0.3,3,0,276,2.3,11378,93.7,7,0,0,1,50.7,11378,92.9,1.23568663,41557,3.40,44.8,1.10,,,,,,,6,,"1,224","3,229","3,236",989,14.10,37.20,37.30,11.40,-91.81767336,36.3818346,0.9609886116
05051,Arkansas,Garland,100330,19.9,24.4,8626,8.6,814,0.8,870,0.9,89,0.1,6382,6.4,81340,81.1,1296,1,1,2,51.5,35436,36.9,3.48437373,48053,3.80,40.2,2.10,,,,,,,11,,"6,955","23,014","25,131","17,178",9.60,31.80,34.80,23.80,-93.15048723,34.57659951,0.8687129844
05053,Arkansas,Grant,18090,22.1,18.3,510,2.8,109,0.6,88,0.5,12,0.1,587,3.2,16567,91.6,16,0,0,1,50.5,13395,75,1.02841977,67088,3.10,43.4,0.20,,,,,,,12,,"1,055","5,351","3,893","2,255",8.40,42.60,31.00,18.00,-92.42371463,34.29002049,0.9466637758
05055,Arkansas,Greene,46317,24.4,16.2,987,2.1,255,0.6,221,0.5,194,0.4,1510,3.3,42573,91.9,191,0,0,1,50.6,17470,41.5,0.66781705,53920,3.30,40.7,1.30,,,,,,,7,,"3,485","13,628","8,618","5,004",11.30,44.30,28.00,16.30,-90.55895377,36.11773282,0.9515757616
05057,Arkansas,Hempstead,19694,25.5,19.1,5830,29.6,164,0.8,124,0.6,46,0.2,2747,13.9,10446,53,657,3,2,5,51.2,12609,55.8,5.43191934,41281,3.30,37.8,0.80,,,39.58,,49.8,,16,,"2,181","5,182","3,969","2,159",16.20,38.40,29.40,16.00,-93.66809039,33.73564268,0.6539312097
05059,Arkansas,Hot Spring,33148,20.4,19.7,3597,10.9,230,0.7,153,0.5,26,0.1,1276,3.8,27269,82.3,81,0,0,1,47.6,21719,66,1.33353222,51662,3.50,39.7,2.40,,,32.68,,40.3,,11,,"2,699","9,240","7,783","3,880",11.40,39.10,33.00,16.40,-92.94560125,34.31751189,0.8555657501
05061,Arkansas,Howard,12698,26.3,18,2600,20.5,197,1.6,84,0.7,17,0.1,1766,13.9,7935,62.5,304,3,1,4,51.2,9310,67.5,5.79580252,42733,3.30,39,2.90,,,29.07,,49.4,,16,,"1,028","3,596","2,753","1,227",11.90,41.80,32.00,14.30,-93.99344494,34.08897983,0.7466625982
05063,Arkansas,Independence,37723,24,18.3,903,2.4,356,0.9,361,1,119,0.3,2761,7.3,32854,87.1,391,1,0,2,50.6,25134,68.6,3.05120223,48957,3.40,44.3,0.50,,,,,,,6,,"3,610","9,405","8,201","4,178",14.20,37.00,32.30,16.50,-91.56991638,35.74143554,0.9369388458
05065,Arkansas,Izard,13911,18.5,24.8,345,2.5,122,0.9,71,0.5,3,0,393,2.8,12814,92.1,3,0,0,1,47.4,13696,100,1.85854414,40788,5.20,44.1,1.90,,,,,,,0,,"1,838","3,414","3,270","1,748",17.90,33.20,31.80,17.00,-91.91279069,36.09526565,0.9504885036
05067,Arkansas,Jackson,16811,20.5,18.3,2909,17.3,130,0.8,93,0.6,42,0.2,569,3.4,12801,76.1,4,0,0,1,49.8,11709,65.1,0.5341074,37815,5.00,38.6,3.90,,Large state prison,34.77,,48.2,,14,,"1,980","5,169","3,319","1,519",16.50,43.10,27.70,12.70,-91.21423884,35.59923757,0.7930391921
05069,Arkansas,Jefferson,65861,21.6,18.7,37542,57,303,0.5,633,1,81,0.1,1658,2.5,24918,37.8,488,1,0,1,50.3,23940,30.9,1.57,46100,5.20,35.7,4.00,,,44.27,,,,11,,"5,383","19,219","12,779","9,030",11.60,41.40,27.50,19.50,-91.93189159,34.26882203,0.3937317405
05071,Arkansas,Johnson,25845,24.5,17.2,441,1.7,343,1.3,800,3.1,51,0.2,3767,14.6,20019,77.5,807,3,2,4,50,18227,71.4,9.32258187,43003,4.10,43.5,0.90,,,,,,,13,,"3,377","6,929","3,931","2,716",19.90,40.90,23.20,16.00,-93.46000035,35.57001766,0.911213367
05073,Arkansas,Lafayette,6163,18.5,25.2,2129,34.5,50,0.8,46,0.7,1,0,221,3.6,3638,59,48,1,0,2,50.9,7645,100,1.77874187,38777,4.80,36.1,2.20,,,,,,,11,,864,"2,095","1,117",490,18.90,45.90,24.50,10.70,-93.60684679,33.24091819,0.614160097
05075,Arkansas,Lawrence,16292,22.5,19,201,1.2,104,0.6,55,0.3,11,0.1,287,1.8,15375,94.4,0,0,0,1,50.4,11069,63.6,0.88187654,44661,3.60,43.2,3.40,,,31.79,,,,17,,"1,668","4,271","3,398","1,631",15.20,38.90,31.00,14.90,-91.1070497,36.04103952,0.961182206
05077,Arkansas,Lee,8619,18.1,20.3,4608,53.5,58,0.7,50,0.6,2,0,272,3.2,3516,40.8,87,1,0,2,43,6620,63.5,0.93,29714,4.60,37.4,4.80,,,45.95,,53.8,,20,,"1,141","2,847","1,650",610,18.30,45.60,26.40,9.80,-90.78211015,34.78064921,0.4339245859
05079,Arkansas,Lincoln,13037,16.1,15.7,3883,29.8,77,0.6,55,0.4,2,0,627,4.8,8264,63.4,93,1,0,2,37.2,14134,100,1.85469149,45435,4.50,38.4,2.50,,Large state prison (Cummins and Varmer units),,,,,18,,"1,855","4,753","2,401",862,18.80,48.20,24.30,8.70,-91.73333878,33.95753882,0.6793108776
05081,Arkansas,Little River,11944,22.4,21,2338,19.6,213,1.8,62,0.5,12,0.1,479,4,8621,72.2,1,0,0,1,51.7,9025,68.5,0.29797858,46619,3.90,41.4,3.30,,,36.27,,50.7,,1,,847,"3,656","2,629","1,246",10.10,43.60,31.40,14.90,-94.2339787,33.70228691,0.7533661741
05083,Arkansas,Logan,21215,21.5,20.3,295,1.4,262,1.2,457,2.2,8,0,668,3.1,19175,90.4,86,0,0,1,50.4,15875,71,1.82010388,45558,3.80,43.1,2.50,,,,,,,9,,"1,853","6,704","4,635","1,908",12.30,44.40,30.70,12.60,-93.71630518,35.21550403,0.9333956095
05085,Arkansas,Lonoke,74722,25.1,14.4,4699,6.3,607,0.8,744,1,68,0.1,3725,5,63526,85,463,1,0,1,50.6,30632,44.8,2.14386616,64633,2.80,39.9,1.20,,,,,,,5,,"4,955","18,597","15,689","10,015",10.10,37.80,31.90,20.30,-91.88791683,34.75441172,0.896294693
05087,Arkansas,Madison,16960,23.3,19.5,100,0.6,317,1.9,170,1,139,0.8,1084,6.4,14930,88,12,0,0,1,49.7,15717,100,3.52077631,49691,2.50,43.4,0.10,,,,,,,11,,"1,734","5,735","2,467","1,556",15.10,49.90,21.50,13.50,-93.72465597,36.01103565,0.9385964912
05089,Arkansas,Marion,16978,18.7,29.1,111,0.7,188,1.1,102,0.6,14,0.1,437,2.6,15815,93.1,46,0,0,1,50.4,16653,100,1.21669303,42892,3.70,44.1,1.70,,,,,,,3,,"1,770","4,682","4,416","1,933",13.80,36.60,34.50,15.10,-92.68397295,36.26842934,0.9550923169
05091,Arkansas,Miller,42649,23.6,17.3,10787,25.3,399,0.9,261,0.6,34,0.1,1648,3.9,28767,67.5,19,0,0,0,50.6,17390,40,1.59738568,45450,3.90,38.1,2.80,,,,,,,12,,"3,828","10,586","9,851","4,950",13.10,36.20,33.70,16.90,-93.89142003,33.31200171,0.7048428562
05093,Arkansas,Mississippi,39661,26.2,15.4,14066,35.5,230,0.6,199,0.5,15,0,1980,5,22774,57.4,341,1,0,1,50.9,16857,36.3,1.69970349,41007,5.20,36.9,6.70,,,,,,,9,,"4,654","11,058","7,244","3,813",17.40,41.30,27.10,14.20,-90.05430077,35.76420127,0.6137622922
05095,Arkansas,Monroe,6683,22.6,24.2,2680,40.1,56,0.8,54,0.8,0,0,190,2.8,3584,53.6,0,0,0,1,52.5,5621,69,0.6621603,37113,4.40,39.8,6.70,,,,,,,15,,"1,030","2,007","1,169",655,21.20,41.30,24.00,13.50,-91.20394825,34.67772323,0.5577156744
05097,Arkansas,Montgomery,8611,18.4,26.6,46,0.5,137,1.6,121,1.4,3,0,405,4.7,7748,90,108,1,0,3,50.2,9487,100,3.35816746,41359,4.80,,1.30,,,,,,,11,,"1,030","2,111","2,295",985,16.00,32.90,35.70,15.30,-93.65944523,34.53888136,0.9393737508
05099,Arkansas,Nevada,8187,22.8,21.6,2391,29.2,37,0.5,42,0.5,2,0,393,4.8,5199,63.5,0,0,0,1,50.8,6224,69.2,0.59241706,40283,3.90,39.8,1.50,,,41.58,,48.6,,27,,517,"2,937","1,633",637,9.00,51.30,28.50,11.10,-93.30697684,33.66338522,0.6641560687
05101,Arkansas,Newton,7204,19.3,27.4,32,0.4,108,1.5,40,0.6,1,0,172,2.4,6663,92.5,0,0,0,1,49.1,8330,100,0.68807339,41823,3.00,42.9,1.20,,,,,,,11,,790,"2,026","1,652",877,14.80,37.90,30.90,16.40,-93.2178649,35.91979049,0.9490923441
05103,Arkansas,Ouachita,22306,22.5,21.2,8847,39.7,98,0.4,117,0.5,9,0,594,2.7,12195,54.7,16,0,0,1,52,14719,56.4,0.56417489,47169,3.90,37.5,3.70,,,34.24,,44.8,,18,,"1,995","6,501","5,412","2,131",12.40,40.50,33.70,13.30,-92.88191217,33.59337533,0.5662796219
05105,Arkansas,Perry,9964,21.7,20.8,218,2.2,100,1,31,0.3,2,0,322,3.2,9095,91.3,12,0,0,1,49.8,10445,100,0.53284247,51204,3.60,44,0.20,,,,,,,5,,617,"3,076","2,156","1,241",8.70,43.40,30.40,17.50,-92.93150636,34.947251,0.943836545
05107,Arkansas,Phillips,15906,26.1,20.2,9785,61.5,74,0.5,72,0.5,4,0,355,2.2,5450,34.3,2,0,0,1,52.8,10436,48,0.56,32419,6.30,35,6.90,,,43.37,,54.1,,19,,"2,010","3,489","3,902","1,575",18.30,31.80,35.60,14.30,-90.84810681,34.42853288,0.3499046188
05109,Arkansas,Pike,10066,21.9,20.7,349,3.5,142,1.4,83,0.8,12,0.1,715,7.1,8676,86.2,113,1,0,2,49.9,11291,100,4.07105848,43710,3.70,45.3,1.20,,,29.25,,55.1,,9,,865,"2,729","2,160","1,392",12.10,38.20,30.20,19.50,-93.65621,34.16356461,0.9211688434
05111,Arkansas,Poinsett,22660,24,18.2,1847,8.2,100,0.4,96,0.4,11,0,843,3.7,19355,85.4,38,0,0,1,51,17488,71.1,0.64854078,42639,3.40,38,5.80,,,45.36,,42.5,,10,,"2,920","7,067","3,972","1,816",18.50,44.80,25.20,11.50,-90.66282507,35.57408383,0.8887600395
05113,Arkansas,Polk,19353,22.7,23,111,0.6,443,2.3,193,1,11,0.1,1291,6.7,16908,87.4,162,1,0,1,50.8,15163,73.4,4.53801518,43166,3.70,45.3,1.90,,,,,,,17,,"1,569","5,178","4,748","2,112",11.50,38.10,34.90,15.50,-94.2279123,34.48595315,0.9381945502
05115,Arkansas,Pope,63789,22.9,16.3,2011,3.2,700,1.1,803,1.3,84,0.1,6437,10.1,52814,82.8,1323,2,2,3,50.3,33652,54.5,5.22437308,47049,3.90,41.4,-0.20,,,,,,,9,,"6,442","13,836","11,106","9,502",15.80,33.80,27.20,23.20,-93.03400145,35.4476948,0.9200733671
05117,Arkansas,Prairie,8135,20.8,24.2,857,10.5,33,0.4,14,0.2,6,0.1,180,2.2,6947,85.4,21,0,0,1,49.4,8715,100,0.06065017,59367,3.00,40.5,2.10,,,23.58,,54.3,,2,,793,"2,552","1,759",921,13.20,42.40,29.20,15.30,-91.55194184,34.83010091,0.8679387396
05119,Arkansas,Pulaski,397821,23.2,16.5,151040,38,1825,0.5,9319,2.3,151,0,25919,6.5,201717,50.7,5981,2,1,2,52.2,46989,12.3,5.52123071,53597,3.50,35.8,0.80,,,,,,,13,,"23,083","69,538","79,783","98,432",8.50,25.70,29.50,36.30,-92.31191414,34.76993891,0.5659550104
05121,Arkansas,Randolph,18865,25.2,19,250,1.3,136,0.7,102,0.5,423,2.2,505,2.7,17033,90.3,148,1,0,2,50.2,12115,67.4,1.92012725,43484,3.40,43,2.40,,,,,,,9,,"1,821","4,839","3,945","2,030",14.40,38.30,31.20,16.10,-91.02752205,36.34154412,0.9297966789
05123,Arkansas,St. Francis,22739,21.3,16.9,11848,52.1,204,0.9,169,0.7,19,0.1,1333,5.9,8873,39,571,3,1,4,44,14568,51.6,1.44,36781,4.90,35.1,2.10,,,48.25,,54.7,,19,,"2,950","6,559","5,273","1,903",17.70,39.30,31.60,11.40,-90.74840472,35.02180511,0.436026254
05125,Arkansas,Saline,125233,23.1,18.3,11344,9.1,796,0.6,1748,1.4,77,0.1,7096,5.7,102542,81.9,919,1,1,1,51,38734,36.2,3.06671525,68107,2.80,40.6,-0.90,,,,,,,8,,"6,952","26,015","28,198","23,685",8.20,30.70,33.20,27.90,-92.67655329,34.64661779,0.875040333
05127,Arkansas,Scott,9822,23.3,20.9,76,0.8,269,2.7,298,3,6,0.1,811,8.3,8190,83.4,249,3,1,4,49.2,7903,70.4,1.96322544,39974,2.80,42.7,3.20,,,,,,,21,,"1,387","2,827","1,950",757,20.00,40.80,28.20,10.90,-94.06315729,34.86103868,0.9071231799
05129,Arkansas,Searcy,7880,20,25.9,32,0.4,114,1.4,29,0.4,2,0,245,3.1,7275,92.3,21,0,0,2,49,8195,100,0.93398965,35422,4.50,46.9,1.40,,,,,,,15,,"1,145","2,282","1,458",884,19.80,39.60,25.30,15.30,-92.69933958,35.91115674,0.9492476409
05131,Arkansas,Sebastian,128400,23.9,16.7,8571,6.7,3274,2.5,6065,4.7,287,0.2,19750,15.4,87286,68,4317,4,,,50.8,26170,20.8,9.0278595,49170,3.10,40.2,0.80,,,,,,,5,,"13,214","25,325","26,581","20,559",15.40,29.60,31.00,24.00,-94.27397371,35.19943145,0.8164903206
05133,Arkansas,Sevier,15783,28.5,15,575,3.6,606,3.8,113,0.7,200,1.3,5476,34.7,8728,55.3,1484,10,8,12,49.6,10849,63.6,16.5067179,46651,3.90,44.3,0.70,,,,,,,13,,"2,662","3,474","2,752","1,169",26.50,34.50,27.40,11.60,-94.24072249,33.9971421,0.8774398276
05135,Arkansas,Sharp,17622,21.1,25.1,191,1.1,199,1.1,91,0.5,17,0.1,450,2.6,16351,92.8,27,0,0,1,50.7,13821,80.1,0.76864402,39183,4.10,43.7,0.90,,,,,,,18,,"2,220","4,873","4,010","1,391",17.80,39.00,32.10,11.10,-91.47928351,36.16124847,0.9526515152
05137,Arkansas,Stone,12481,19.7,28.3,58,0.5,127,1,60,0.5,4,0,236,1.9,11787,94.4,0,0,0,1,50.3,12394,100,0.36156195,37782,4.20,40,-0.20,,,,,,,11,,"1,394","3,128","3,243","1,304",15.40,34.50,35.80,14.40,-92.15689859,35.86003074,0.9624427963
05139,Arkansas,Union,38340,23.9,18.9,12609,32.9,192,0.5,308,0.8,20,0.1,1631,4.3,23134,60.3,336,1,0,1,51.1,22695,54.5,2.22742374,47315,4.80,37.4,4.70,,,,,,,12,,"3,664","10,177","8,032","4,931",13.70,38.00,30.00,18.40,-92.59770646,33.17125929,0.6380857689
05141,Arkansas,Van Buren,15694,18.7,26.7,130,0.8,158,1,76,0.5,5,0,565,3.6,14487,92.3,70,0,0,1,49.9,17295,100,1.09685927,39629,4.30,45.4,-0.60,,,,,,,7,,"1,754","4,857","3,219","1,910",14.90,41.40,27.40,16.30,-92.51610324,35.58054667,0.9578018258
05143,Arkansas,Washington,250057,23.9,12.3,8744,3.5,4090,1.6,6689,2.7,7376,2.9,43881,17.5,174383,69.7,9403,4,,,49.8,51771,25.5,10.9482823,64218,2.30,42.8,-1.60,,,,,,,5,,"20,070","40,952","37,453","50,160",13.50,27.60,25.20,33.70,-94.21571712,35.97899668,0.8586523913
05145,Arkansas,White,77207,23.2,16.6,3468,4.5,543,0.7,657,0.9,64,0.1,3717,4.8,67347,87.2,489,1,0,1,51.1,41866,54.3,2.8209228,51660,3.50,42.8,1.20,,,,,,,9,,"7,126","20,258","12,575","10,174",14.20,40.40,25.10,20.30,-91.74548804,35.25612459,0.916422157
05147,Arkansas,Woodruff,6116,21.4,24.3,1545,25.3,32,0.5,18,0.3,5,0.1,131,2.1,4252,69.5,0,0,,,51.1,7260,100,0.52552553,37331,3.50,37.6,3.90,,,,,,,3,,785,"1,929","1,037",720,17.60,43.10,23.20,16.10,-91.24302721,35.18620495,0.7094508301
05149,Arkansas,Yell,20155,24.1,18.1,381,1.9,256,1.3,325,1.6,22,0.1,4271,21.2,14816,73.5,1067,6,4,7,49.5,17554,79.1,9.53970241,48526,3.80,42.1,1.20,,,,,,,8,,"3,135","5,240","3,577","1,953",22.50,37.70,25.70,14.00,-93.41105962,35.00270728,0.9330059959
06001,California,Alameda,1648556,20.1,14.9,161893,9.8,18210,1.1,557372,33.8,15743,1,369668,22.4,482189,29.2,117183,7,,,50.4,5869,0.4,32.3804831,108971,3.30,42.5,-6.40,,,,,,,1,,"131,272","198,825","271,096","592,670",11.00,16.70,22.70,49.60,-121.888612,37.64642367,0.4838012829
06003,California,Alpine,1235,17.9,24.8,4,0.3,293,23.7,23,1.9,1,0.1,156,12.6,775,62.8,19,2,0,6,47.5,1175,100,2.35602094,87570,5.40,,,,,,,,,17,,61,249,278,381,6.30,25.70,28.70,39.30,-119.8206263,38.59721624,0.6782841823
06005,California,Amador,41259,15.2,27.4,1152,2.8,883,2.1,753,1.8,155,0.4,6412,15.5,31341,76,452,1,1,2,45.2,23016,60.4,5.66232256,68159,4.40,44.2,-3.30,,,,,,,0,,"2,757","9,724","13,052","6,192",8.70,30.70,41.10,19.50,-120.651296,38.44638702,0.8932714617
06007,California,Butte,208309,20.4,18.2,3446,1.7,5655,2.7,10963,5.3,648,0.3,38425,18.4,144049,69.2,4909,2,2,3,50.3,41584,18.9,7.55961687,62982,4.50,41.3,-1.20,,,,,,,6,,"13,734","31,704","54,420","42,309",9.70,22.30,38.30,29.80,-121.6008508,39.66681952,0.851210845
06009,California,Calaveras,46221,17.3,28.5,434,0.9,955,2.1,954,2.1,131,0.3,6523,14.1,36225,78.4,434,1,0,2,49.8,34370,75.4,5.67259865,68298,3.60,42.8,-3.10,,,,,,,6,,"3,214","10,815","13,963","6,959",9.20,30.90,40.00,19.90,-120.554132,38.20478056,0.9074026086
06011,California,Colusa,21917,26.7,15.4,251,1.1,633,2.9,342,1.6,139,0.6,13426,61.3,7241,33,2695,13,11,16,49,6795,31.7,27.4739098,60725,11.60,47.8,-3.20,,,,,,,12,,"3,719","4,246","3,934","2,043",26.70,30.50,28.20,14.70,-122.2363987,39.17719198,0.9057426477
06013,California,Contra Costa,1161413,22.2,16.7,100735,8.7,12708,1.1,224326,19.3,7385,0.6,310805,26.8,474397,40.8,64875,6,,,50.8,8316,0.8,24.9908449,110595,3.50,43.6,-5.80,,,,,,,3,,"82,564","140,633","227,162","354,661",10.30,17.50,28.20,44.10,-121.9281273,37.91933375,0.6422041198
06015,California,Del Norte,28100,20.8,18.9,996,3.5,2733,9.7,905,3.2,65,0.2,5936,21.1,17049,60.7,477,2,1,3,45,9634,33.7,7.02304551,48108,5.10,38.6,0.10,,,,,,,14,,"3,825","6,101","6,601","3,176",19.40,31.00,33.50,16.10,-123.8971513,41.74323775,0.7788186499
06017,California,El Dorado,193221,19.6,22.6,1782,0.9,2632,1.4,10155,5.3,486,0.3,26579,13.8,146708,75.9,2362,1,1,2,49.9,62827,34.7,9.58636244,87689,3.40,45.6,-5.50,,,,,,,4,,"7,421","28,993","51,667","51,363",5.30,20.80,37.10,36.80,-120.5247066,38.77888901,0.8818400933
06019,California,Fresno,1013581,28.2,12.6,46875,4.6,32038,3.2,117905,11.6,3067,0.3,554633,54.7,275787,27.2,96137,10,,,49.8,100537,10.8,21.348696,63140,6.40,40.8,-1.60,,,,,,,5,,"136,835","140,532","201,826","140,183",22.10,22.70,32.60,22.60,-119.6506833,36.75807672,0.7585886157
06021,California,Glenn,28805,26.8,16.7,269,0.9,974,3.4,868,3,73,0.3,12662,44,14146,49.1,2401,9,7,11,48.7,11494,40.9,18.8407356,56741,5.30,43.6,-0.90,,,,,,,9,,"4,303","5,538","5,728","2,725",23.50,30.30,31.30,14.90,-122.3921982,39.59788378,0.8889085316
06023,California,Humboldt,136310,18.9,19.2,1755,1.3,8790,6.4,4060,3,495,0.4,17614,12.9,98936,72.6,2213,2,1,2,50.3,40062,29.8,5.44016263,53924,4.00,38.9,-0.80,,,,,,,5,,"8,451","21,654","34,447","29,263",9.00,23.10,36.70,31.20,-123.8755258,40.69940115,0.8292449825
06025,California,Imperial,179851,28.5,13.4,4410,2.5,4631,2.6,3849,2.1,383,0.2,154269,85.8,16605,9.2,32860,20,19,21,48.5,30399,17.4,31.0976828,50970,14.70,44,-2.60,,,,,,,8,,"32,595","28,187","32,727","16,758",29.60,25.60,29.70,15.20,-115.3657218,33.03935669,0.900713941
06027,California,Inyo,18970,20.9,24.1,174,0.9,2669,14.1,334,1.8,27,0.1,4655,24.5,11292,59.5,305,2,1,3,49.6,8611,46.4,9.16781863,62381,3.70,43.7,-2.30,,,,,,,8,,"1,088","4,188","4,721","3,749",7.90,30.50,34.30,27.30,-117.4113187,36.51173415,0.794081791
06029,California,Kern,917673,28.7,11.4,48199,5.3,25514,2.8,51496,5.6,2554,0.3,515237,56.1,285148,31.1,84172,10,10,10,48.6,85693,10.2,19.9698093,57926,6.90,45.3,-0.10,,,,,,,8,,"132,826","152,266","169,915","97,236",24.10,27.60,30.80,17.60,-118.72959,35.34292819,0.8178811621
06031,California,Kings,153443,27,10.7,9656,6.3,4915,3.2,6825,4.4,558,0.4,86773,56.6,45987,30,15125,11,10,12,44.7,16601,10.9,18.0836249,60810,7.00,42.2,-2.80,,,,,,,7,,"24,856","24,622","31,283","13,498",26.40,26.10,33.20,14.30,-119.8151995,36.07520008,0.8075537684
06033,California,Lake,68766,21.8,23.1,1186,1.7,3245,4.7,1001,1.5,231,0.3,16461,23.9,45855,66.7,1822,3,2,4,49.9,21408,33.1,8.8576417,55801,5.00,40.4,1.60,,,,,,,2,,"6,548","14,601","19,142","8,557",13.40,29.90,39.20,17.50,-122.7532352,39.0996887,0.86592534
06035,California,Lassen,33159,17.8,15.9,2596,7.8,1469,4.4,577,1.7,297,0.9,6794,20.5,21107,63.7,847,3,1,4,37.8,24610,70.5,5.21404521,56923,4.50,44.3,-1.90,,,25.34,,49.4,,9,,"4,853","7,891","8,716","2,863",20.00,32.40,35.80,11.80,-120.5947447,40.6733613,0.8102345416
06037,California,Los Angeles,9829544,21.1,14.6,777490,7.9,146475,1.5,1538016,15.6,36203,0.4,4824989,49.1,2488053,25.3,1185441,13,,,50.4,59424,0.6,34.2338899,77356,4.90,43.3,-4.90,,,,,,,1,,"1,381,447","1,411,475","1,772,567","2,356,572",20.00,20.40,25.60,34.00,-118.224703,34.32134579,0.7021198534
06039,California,Madera,159410,27.4,14.3,4961,3.1,7251,4.5,4399,2.8,477,0.3,96013,60.2,50476,31.7,18196,13,11,14,51.4,49672,32.9,20.6202061,60241,6.10,41.7,-2.70,,,,,,,5,,"27,789","22,929","31,711","16,144",28.20,23.30,32.20,16.40,-119.7624357,37.21825802,0.856339653
06041,California,Marin,260206,19.2,23.4,6838,2.6,2644,1,17872,6.9,684,0.3,43690,16.8,182437,70.1,10001,4,3,4,50.6,16457,6.5,18.4363895,118472,2.70,46.7,-8.80,,,,,,,1,,"12,672","19,589","44,532","115,907",6.60,10.20,23.10,60.10,-122.7234103,38.07351203,0.8490860056
06043,California,Mariposa,17147,17.1,28.8,214,1.2,627,3.7,310,1.8,43,0.3,2365,13.8,13284,77.5,148,1,0,2,49.3,18251,100,7.10946408,60377,4.50,45.1,-4.20,,,,,,,3,,"1,233","3,028","5,351","3,901",9.10,22.40,39.60,28.90,-119.9053183,37.58143472,0.8913170163
06045,California,Mendocino,91305,21.1,23.7,724,0.8,6062,6.6,2149,2.4,242,0.3,24842,27.2,57445,62.9,3711,4,3,5,50.2,39731,45.2,12.9509734,57516,4.10,40,-2.10,,,,,,,6,,"8,704","17,147","23,338","15,962",13.40,26.30,35.80,24.50,-123.3914743,39.44027921,0.8578566366
06047,California,Merced,286461,29,11.5,8526,3,7601,2.7,22665,7.9,1184,0.4,178936,62.5,71057,24.8,35499,14,13,15,49.2,36510,14.3,25.7326024,54703,7.70,42,-1.80,,,,,,,8,,"49,054","43,880","49,268","23,259",29.60,26.50,29.80,14.10,-120.7175058,37.19189197,0.8170111584
06049,California,Modoc,8661,18.8,28.4,104,1.2,470,5.4,123,1.4,35,0.4,1332,15.4,6580,76,285,3,1,6,49.7,6776,70,7.2163795,49273,5.50,46.7,-0.50,,,,,,,17,,955,"2,136","2,180","1,293",14.50,32.50,33.20,19.70,-120.7251192,41.58969344,0.8772110008
06051,California,Mono,13247,17.3,17.7,104,0.8,404,3,301,2.3,50,0.4,3600,27.2,8666,65.4,304,2,0,5,46.4,6509,45.8,17.5603217,70945,3.70,48.1,-26.90,,,10.15,,77.7,,17,,"1,214","2,124","3,355","2,804",12.80,22.40,35.30,29.50,-118.8872447,37.93940061,0.90016513
06053,California,Monterey,437325,25.9,14.5,10829,2.5,11680,2.7,29512,6.7,2565,0.6,264250,60.4,124038,28.4,68862,17,16,18,48.9,40742,9.8,29.9855498,81404,5.90,43.6,-5.80,,,,,,,5,,"75,771","56,912","73,530","74,311",27.00,20.30,26.20,26.50,-121.2387503,36.21711865,0.8253006456
06055,California,Napa,136207,19.7,20.2,2977,2.2,1750,1.3,12413,9.1,599,0.4,48438,35.6,68696,50.4,9243,7,6,8,49.8,18290,13.4,22.3930833,94127,3.20,47.3,-5.70,,,,,,,3,,"14,541","17,698","29,842","36,464",14.80,18.00,30.30,37.00,-122.3306328,38.5065458,0.8335601074
06057,California,Nevada,103487,17,28.5,566,0.5,1369,1.3,1694,1.6,219,0.2,10478,10.1,86878,84,1185,1,1,2,50.5,41614,42.1,5.54737012,77220,3.40,44.2,-4.40,,,,,,,9,,"3,827","14,963","29,399","30,391",4.90,19.00,37.40,38.70,-120.7682923,39.30150048,0.9311989238
06059,California,Orange,3167809,21.4,15.7,54537,1.7,33448,1.1,721900,22.8,12318,0.4,1080593,34.1,1220128,38.5,267533,9,,,50.4,4315,0.1,30.1911205,100210,3.20,46.4,-6.40,,,,,,,1,,"294,180","378,888","598,758","925,364",13.40,17.20,27.30,42.10,-117.760976,33.70311134,0.7015962514
06061,California,Placer,412300,22,20,7587,1.8,4452,1.1,37382,9.1,1314,0.3,62673,15.2,286599,69.5,6221,2,1,2,50.8,48039,13.8,10.9583058,103588,3.10,45.4,-5.90,,,,,,,5,,"14,584","49,539","100,475","117,251",5.20,17.60,35.60,41.60,-120.717846,39.06347097,0.8317582827
06063,California,Plumas,19915,17.3,30.3,217,1.1,632,3.2,218,1.1,39,0.2,2058,10.3,16358,82.1,138,1,0,1,49.8,14810,74,4.03764907,58154,6.50,44,-1.00,,,,,,,1,,820,"4,108","6,655","3,464",5.40,27.30,44.20,23.00,-120.8382348,40.00422172,0.9032530184
06065,California,Riverside,2458395,24.6,14.8,155301,6.3,49421,2,184649,7.5,11757,0.5,1267615,51.6,787470,32,176202,8,,,49.8,101212,4.6,21.6607659,78690,4.20,41.8,-3.60,,,,,,,7,,"267,525","423,504","511,637","370,132",17.00,26.90,32.50,23.50,-115.9939021,33.74329781,0.7898390961
06067,California,Sacramento,1588921,23.3,14.7,154449,9.7,25594,1.6,282159,17.8,20965,1.3,387454,24.4,668539,42.1,91157,6,,,50.8,29257,2.1,20.8331264,79611,3.90,41.6,-2.80,,,,,,,4,,"127,455","235,075","363,694","341,705",11.90,22.00,34.10,32.00,-121.3445212,38.44881725,0.6190715943
06069,California,San Benito,66677,25.6,13.2,758,1.1,2140,3.2,3126,4.7,396,0.6,41360,62,20367,30.5,5221,9,8,10,49.6,13267,24,20.2857816,95187,5.00,43.8,-5.50,,,,,,,3,,"6,901","11,037","14,805","8,460",16.70,26.80,35.90,20.50,-121.0752215,36.60559815,0.8646787917
06071,California,San Bernardino,2194710,26,12.1,176634,8,47910,2.2,187149,8.5,10992,0.5,1224685,55.8,557108,25.4,151068,7,,,49.9,96357,4.7,20.9887268,74218,4.10,42,-1.20,,,,,,,9,,"260,315","370,115","445,345","301,891",18.90,26.90,32.30,21.90,-116.1783784,34.84157876,0.758213909
06073,California,San Diego,3286069,21.3,14.9,155004,4.7,44454,1.4,423890,12.9,19816,0.6,1145183,34.8,1437672,43.8,190544,6,,,49.3,102054,3.3,23.4454785,90756,3.40,44.3,-5.40,,,,,,,3,,"263,063","409,660","672,143","906,455",11.70,18.20,29.90,40.30,-116.7353982,33.03386576,0.7483944885
06075,California,San Francisco,815201,14,17.5,41592,5.1,6221,0.8,303648,37.2,3817,0.5,128030,15.7,311281,38.2,88926,11,10,11,48.9,0,0,34.4418213,119776,2.50,47.8,-7.30,,,,,,,0,,"77,300","78,359","123,258","410,052",11.20,11.40,17.90,59.50,-122.4396708,37.75668116,0.5206137507
06077,California,San Joaquin,789410,26.7,13.1,56036,7.1,16521,2.1,146305,18.5,6939,0.9,339331,43,223355,28.3,64004,9,,,49.8,58065,8.5,23.3385959,79598,5.20,42.6,-1.30,,,,,,,5,,"96,216","140,468","156,626","95,083",19.70,28.80,32.10,19.50,-121.2712102,37.9345275,0.6506763963
06079,California,San Luis Obispo,283159,17.5,21.4,5188,1.8,4092,1.4,11641,4.1,544,0.2,67302,23.8,191003,67.5,7669,3,2,3,49.2,44750,16.6,10.3430389,79688,3.00,45.1,-5.40,,,,,,,4,,"15,354","37,215","67,834","69,920",8.10,19.60,35.60,36.70,-120.4042917,35.38707354,0.8861218286
06081,California,San Mateo,737888,19.9,17.5,16470,2.2,6597,0.9,234680,31.8,10673,1.4,176847,24,276267,37.4,47507,7,6,7,50.2,13586,1.9,34.824365,131151,2.40,47,-8.50,,,,,,,1,,"50,652","82,159","129,495","289,401",9.20,14.90,23.50,52.50,-122.328899,37.42298018,0.584709643
06083,California,Santa Barbara,446475,22.3,16,7726,1.7,10001,2.2,26561,5.9,1247,0.3,210764,47.2,190451,42.7,43385,10,10,11,49.8,21269,5,22.897746,83185,3.50,44.4,-5.30,,,,,,,3,,"50,274","47,957","82,013","97,636",18.10,17.30,29.50,35.10,-120.0150919,34.67142103,0.8505371364
06085,California,Santa Clara,1885508,21.2,14.5,45141,2.4,22742,1.2,764874,40.6,9711,0.5,471518,25,544685,28.9,158754,9,,,49.1,19307,1.1,38.7397253,141161,2.60,45.6,-8.30,,,,,,,1,,"145,904","184,860","284,658","733,950",10.80,13.70,21.10,54.40,-121.6951016,37.23169965,0.5109246738
06087,California,Santa Cruz,267792,18.6,18.3,2663,1,5212,1.9,14245,5.3,572,0.2,92149,34.4,150577,56.2,16945,7,6,7,50.3,31589,12,17.885778,90370,4.80,43.4,-6.30,,,,,,,5,,"21,102","28,627","54,858","75,398",11.70,15.90,30.50,41.90,-122.0017742,37.0561908,0.8671112346
06089,California,Shasta,182139,21.7,21,2045,1.1,5902,3.2,6080,3.3,447,0.2,20697,11.4,141823,77.9,1731,1,1,1,50.6,51902,29.3,5.4516012,60187,4.60,41.9,0.60,,,,,,,7,,"11,492","33,218","54,858","29,041",8.90,25.80,42.70,22.60,-122.0409443,40.76391106,0.8727510376
06091,California,Sierra,3283,16.8,30.4,13,0.4,84,2.6,28,0.9,5,0.2,426,13,2684,81.8,13,0,0,2,49.3,3231,99.7,2.21843003,60659,4.20,,-4.60,,,,,,,25,,130,681,981,515,5.60,29.50,42.50,22.30,-120.5162324,39.58019892,0.9232876712
06093,California,Siskiyou,44118,20.3,26.9,609,1.4,2297,5.2,754,1.7,181,0.4,6125,13.9,32715,74.2,616,1,1,2,50,29556,65.8,5.17914561,50069,5.70,44.5,0.50,,,,,,,11,,"3,250","8,724","13,316","6,933",10.10,27.10,41.30,21.50,-122.5405164,41.59272613,0.8553821251
06095,California,Solano,451716,22,16.9,61366,13.6,5949,1.3,75241,16.7,4866,1.1,129083,28.6,159487,35.3,20418,5,,,49.8,15370,3.7,20.019611,87348,4.20,42.8,-3.60,,,,,,,4,,"34,837","74,274","116,367","86,981",11.10,23.80,37.20,27.80,-121.9331593,38.27025048,0.5893295446
06097,California,Sonoma,485887,19.1,21.1,8048,1.7,11122,2.3,23147,4.8,2020,0.4,137610,28.3,298783,61.5,25808,6,5,6,50.8,59776,12.4,16.5442225,92999,3.10,43.6,-5.60,,,,,,,3,,"38,619","65,278","120,203","132,345",10.80,18.30,33.70,37.10,-122.8872965,38.52842052,0.8634577262
06099,California,Stanislaus,552999,26.9,13.4,15256,2.8,12000,2.2,34716,6.3,5360,1,273597,49.5,210893,38.1,45359,9,,,50.1,41057,8,20.5694037,73151,5.40,42.2,-0.90,,,,,,,3,,"69,960","104,577","111,856","62,589",20.00,30.00,32.10,17.90,-120.9979524,37.55851635,0.8267709665
06101,California,Sutter,99063,25.6,16,2100,2.1,2385,2.4,17389,17.6,397,0.4,32594,32.9,42938,43.3,8978,10,9,11,50,14019,14.8,22.2421562,63246,6.60,44.6,-2.00,,,,,,,8,,"13,202","15,907","22,792","12,971",20.40,24.50,35.10,20.00,-121.6946189,39.03464654,0.7192197956
06103,California,Tehama,65498,24,20.2,571,0.9,2214,3.4,984,1.5,170,0.3,17875,27.3,42977,65.6,1794,3,2,4,50.1,32676,51.5,8.77187446,53654,4.80,41.4,0.20,,,,,,,10,,"6,389","13,014","17,864","7,627",14.20,29.00,39.80,17.00,-122.2338547,40.12559985,0.9000217074
06105,California,Trinity,16060,17.7,29.1,87,0.5,845,5.3,342,2.1,34,0.2,1269,7.9,12926,80.5,305,2,0,4,48.3,13786,100,4.49385788,45508,4.60,42.5,1.80,,,,,,,8,,764,"4,800","4,605","2,324",6.10,38.40,36.90,18.60,-123.1126773,40.65059444,0.8637033399
06107,California,Tulare,477054,30.2,11.6,6295,1.3,13565,2.8,19745,4.1,1214,0.3,318021,66.7,125819,26.4,56149,13,12,14,49.9,68449,15.5,22.1648421,57398,8.20,42.1,-1.40,,,,,,,5,,"76,249","73,748","86,136","42,332",27.40,26.50,30.90,15.20,-118.8004216,36.22081997,0.8782282154
06109,California,Tuolumne,55810,17,27.2,1210,2.2,1252,2.2,866,1.6,169,0.3,7621,13.7,43697,78.3,330,1,0,1,47.5,27110,49,4.50381963,61396,4.50,44.8,-1.90,,,,,,,6,,"3,344","10,658","17,887","10,396",7.90,25.20,42.30,24.60,-119.9551317,38.02748982,0.9007245712
06111,California,Ventura,839784,22.2,16.7,15145,1.8,16182,1.9,66958,8,2536,0.3,369992,44.1,366270,43.6,70298,9,8,9,50.2,25725,3.1,22.0230347,95819,3.70,44.5,-5.90,,,,,,,2,,"82,625","113,615","182,934","195,611",14.40,19.80,31.80,34.00,-119.0848457,34.45474678,0.8370714071
06113,California,Yolo,216986,20.4,13.2,5637,2.6,3961,1.8,33038,15.2,1252,0.6,70759,32.6,96876,44.6,12450,6,5,7,51.3,13918,6.9,22.8498863,76247,4.00,44.3,-5.00,,,,,,,3,,"15,832","22,654","34,203","54,999",12.40,17.70,26.80,43.10,-121.9015118,38.68648941,0.7348631035
06115,California,Yuba,83421,27.5,13.2,3295,3.9,2534,3,6491,7.8,500,0.6,25413,30.5,43130,51.7,3386,5,4,5,49.2,18921,26.2,12.4951982,60764,5.50,42.4,0.10,,,,,,,11,,"9,568","11,785","20,436","9,018",18.80,23.20,40.20,17.70,-121.3508296,39.26930746,0.7752869261
08001,Colorado,Adams,522140,25.2,11,17428,3.3,12748,2.4,23655,4.5,1355,0.3,218396,41.8,249323,47.8,26886,6,5,6,49.2,15988,3.6,15.3982479,80831,3.40,41.7,-2.20,,,,,,,5,,"50,604","94,610","100,759","88,360",15.10,28.30,30.10,26.40,-104.3375808,39.87357077,0.8534708771
08003,Colorado,Alamosa,16547,24.4,14.7,188,1.1,930,5.6,265,1.6,55,0.3,7981,48.2,7672,46.4,636,4,3,6,50.2,5694,36.9,8.54414984,51009,3.60,44.1,1.30,,,,,,,13,,"1,281","2,790","3,227","2,516",13.10,28.40,32.90,25.60,-105.788359,37.57261807,0.8720642769
08005,Colorado,Arapahoe,654900,22.8,14,70986,10.8,8027,1.2,43439,6.6,2227,0.3,134726,20.6,380519,58.1,23737,4,4,4,50,9011,1.6,14.9915734,84308,3.10,44,-4.20,,,,,,,2,,"35,396","87,772","124,579","198,573",7.90,19.70,27.90,44.50,-104.3385011,39.649919,0.7605513406
08007,Colorado,Archuleta,13790,17.5,27.3,88,0.6,521,3.8,165,1.2,21,0.2,2552,18.5,10501,76.1,28,0,0,1,49.9,7175,59.4,6.12023551,68025,3.20,43.7,-6.20,,,16.81,,56.6,,11,,608,"2,228","3,288","4,071",6.00,21.90,32.30,39.90,-107.0481757,37.19365584,0.9170893209
08009,Colorado,Baca,3514,22.7,25,36,1,87,2.5,14,0.4,0,0,429,12.2,2882,82,38,1,0,3,50.1,3788,100,3.81700814,44257,1.70,,0.00,,,,,,,10,,368,735,837,605,14.50,28.90,32.90,23.80,-102.5601186,37.31923997,0.9302390999
08011,Colorado,Bent,5759,16,19.2,391,6.8,203,3.5,84,1.5,8,0.1,1920,33.3,3230,56.1,62,1,0,3,35.5,2467,38,4.69960406,37185,3.60,,2.40,,,,,,,5,,586,"2,203","1,103",645,12.90,48.60,24.30,14.20,-103.0720227,37.95492416,0.8541822255
08013,Colorado,Boulder,329543,18.1,15.9,3282,1,2955,0.9,16365,5,263,0.1,46380,14.1,254620,77.3,4556,1,1,2,49.4,26255,8.9,10.8064667,90327,2.50,46.8,-6.20,,,,,,,3,,"9,902","24,354","47,235","137,939",4.50,11.10,21.50,62.90,-105.3574574,40.09241482,0.8996304685
08014,Colorado,Broomfield,75325,21.1,15,1078,1.4,626,0.8,5444,7.2,119,0.2,10165,13.5,56536,75.1,980,1,1,2,49.7,326,0.6,9.22262553,106413,2.60,,-5.40,,,,,,,5,,"1,738","6,603","13,147","29,398",3.40,13.00,25.80,57.80,-105.0532651,39.95343909,0.873179578
08015,Colorado,Chaffee,20074,14.8,26.1,351,1.7,347,1.7,189,0.9,19,0.1,2050,10.2,17010,84.7,165,1,0,2,47.1,6663,37.4,3.1673972,65987,2.70,48.1,-5.50,,,,,,,3,,855,"3,939","4,473","6,025",5.60,25.80,29.30,39.40,-106.1940269,38.74728839,0.9367891196
08017,Colorado,Cheyenne,1707,24.5,22.4,22,1.3,33,1.9,39,2.3,2,0.1,213,12.5,1391,81.5,12,1,0,5,48.7,1836,100,7.89602746,58544,1.90,,-2.60,,,,,,,9,,80,344,469,255,7.00,30.00,40.90,22.20,-102.6036365,38.82780723,0.9364902507
08019,Colorado,Clear Creek,9446,13.9,22,90,1,131,1.4,127,1.3,6,0.1,726,7.7,8262,87.5,57,1,0,2,47.1,9088,100,3.25194584,78312,2.90,,-7.10,,,,,,,3,,201,"1,517","1,801","4,060",2.70,20.00,23.80,53.60,-105.6447627,39.68922182,0.9382432714
08021,Colorado,Conejos,7612,25.4,20,47,0.6,346,4.5,79,1,14,0.2,3878,50.9,3467,45.5,78,1,0,2,49.4,8256,100,2.51780889,45931,3.20,48,1.00,,,,,,,3,,525,"1,633","1,604","1,219",10.50,32.80,32.20,24.50,-106.1911108,37.20059578,0.9119489132
08023,Colorado,Costilla,3625,19.4,26.3,58,1.6,225,6.2,56,1.5,11,0.3,2122,58.5,1255,34.6,122,4,1,6,47.7,3524,100,9.81828045,35416,4.10,,-0.80,,,,,,,58,,342,762,865,634,13.10,29.30,33.20,24.40,-105.4278551,37.27823118,0.8732466208
08025,Colorado,Crowley,6012,11.9,13.3,635,10.6,210,3.5,75,1.2,1,0,1970,32.8,3156,52.5,70,1,0,3,26,5823,100,4.65364121,38049,3.80,,-0.80,,,,,,,1,,462,"2,166","1,193",389,11.00,51.40,28.30,9.20,-103.7838298,38.32685938,0.8265449438
08027,Colorado,Custer,5045,13.9,33.2,74,1.5,70,1.4,34,0.7,1,0,311,6.2,4477,88.7,0,0,0,1,48.4,4255,100,2.5862069,63505,2.90,,-2.60,,,,,,,6,,63,661,"1,532","1,422",1.70,18.00,41.70,38.70,-105.3670379,38.10882281,0.9457842948
08029,Colorado,Delta,31661,19.5,27.3,196,0.6,456,1.4,274,0.9,29,0.1,4953,15.6,25554,80.7,285,1,0,2,49.8,19553,63.2,4.30369736,52403,3.60,50.3,-0.70,,,,,,,4,,"2,376","8,368","6,938","5,255",10.40,36.50,30.20,22.90,-107.8629449,38.86135647,0.9475327518
08031,Colorado,Denver,711463,18.6,12.2,63674,8.9,12675,1.8,29052,4.1,1701,0.2,206207,29,391361,55,30092,5,4,5,49.6,0,0,15.6341711,81262,3.10,37.6,-2.50,,,,,,,4,,"51,244","82,175","110,652","270,034",10.00,16.00,21.50,52.50,-104.8760248,39.76129114,0.8076360433
08033,Colorado,Dolores,2397,18,26.2,8,0.3,75,3.1,9,0.4,2,0.1,192,8,2075,86.6,159,7,2,12,47.1,2064,100,0.9777295,55157,3.00,,0.70,,,,,,,37,,70,831,541,519,3.60,42.40,27.60,26.50,-108.5173886,37.75208472,0.9322519084
08035,Colorado,Douglas,368990,24,13.2,6055,1.6,2055,0.6,21348,5.8,469,0.1,35962,9.7,295361,80,2756,1,1,1,49.6,29367,10.3,7.28544736,129839,2.50,47.9,-7.00,,,,,,,2,,"5,012","28,669","62,473","139,774",2.10,12.20,26.50,59.20,-104.92921,39.32970828,0.8908496188
08037,Colorado,Eagle,55727,20.8,13.8,530,1,732,1.3,810,1.5,65,0.1,16335,29.3,37280,66.9,2769,5,4,6,47.1,10431,20,18.323307,94928,2.60,45.9,-15.00,,,,,,,5,,"3,299","6,210","10,012","20,252",8.30,15.60,25.20,50.90,-106.6953848,39.62801893,0.9412514337
08039,Colorado,Elbert,27128,21.2,18.1,337,1.2,257,0.9,304,1.1,59,0.2,2337,8.6,23460,86.5,161,1,0,1,48.9,23086,100,2.59915746,114853,2.40,46.7,-6.00,,,,,,,7,,677,"4,341","6,982","6,546",3.70,23.40,37.60,35.30,-104.1351629,39.2863996,0.9449712591
08041,Colorado,El Paso,737867,23.4,13.5,43889,5.9,10460,1.4,23905,3.2,3043,0.4,136119,18.4,499215,67.7,8274,1,1,1,49.2,55595,8.9,6.92593072,79094,3.30,41.2,-1.70,,,,,,,6,,"26,185","92,459","166,744","186,376",5.60,19.60,35.30,39.50,-104.5257538,38.83242336,0.8306682594
08043,Colorado,Fremont,49661,16.1,22.4,1920,3.9,961,1.9,455,0.9,45,0.1,6819,13.7,39021,78.6,448,1,1,1,42.2,12371,26.4,2.8658355,51732,4.70,45.6,-0.50,,,,,,,13,,"3,916","15,356","11,607","7,059",10.30,40.50,30.60,18.60,-105.4399703,38.47306423,0.9123613345
08045,Colorado,Garfield,62161,24.6,14.4,440,0.7,1092,1.8,609,1,117,0.2,18645,30,41363,66.5,3718,7,5,8,48.5,13592,24.1,14.8655574,78940,3.00,49.3,-4.20,,,,,,,4,,"4,258","10,536","12,662","13,481",10.40,25.70,30.90,32.90,-107.9036205,39.59941978,0.9383924726
08047,Colorado,Gilpin,5873,14.1,19.5,78,1.3,94,1.6,91,1.5,15,0.3,461,7.8,5040,85.8,0,0,0,2,47.3,5441,100,2.90344362,82370,2.70,,-6.10,,,,,,,,,293,664,"1,436","2,283",6.30,14.20,30.70,48.80,-105.5221395,39.85721134,0.928468324
08049,Colorado,Grand,15860,16.1,20.2,140,0.9,161,1,140,0.9,20,0.1,1564,9.9,13711,86.5,81,1,0,1,46.6,12260,82.6,8.02469136,78779,2.70,42.7,-10.20,,,,,,,0,,659,"3,591","3,144","4,475",5.60,30.30,26.50,37.70,-106.1184564,40.10246658,0.9518804609
08051,Colorado,Gunnison,17281,16.2,14.3,105,0.6,504,2.9,160,0.9,5,0,1713,9.9,14910,86.3,72,0,0,1,46.1,8981,58.6,4.43248473,63872,2.50,48.3,-7.50,Too large in land size,,,,,,3,,223,"1,826","2,677","6,196",2.00,16.70,24.50,56.70,-107.0316959,38.66684745,0.936167794
08053,Colorado,Hinsdale,781,15.6,31.1,10,1.3,10,1.3,7,0.9,0,0,48,6.1,691,88.5,0,0,0,8,48.9,843,100,1.3667426,66213,2.50,,,,,,,,,4,,27,120,249,348,3.60,16.10,33.50,46.80,-107.3003579,37.82131615,0.9368811881
08055,Colorado,Huerfano,6920,15.9,32,66,1,367,5.3,72,1,23,0.3,2257,32.6,4325,62.5,56,1,0,2,49,3768,56.1,2.82545952,46798,6.10,43.2,0.70,,,,,,,12,,404,"1,335","2,079","1,295",7.90,26.10,40.70,25.30,-104.9607082,37.68484082,0.8862414645
08057,Colorado,Jackson,1363,17.3,25.5,6,0.4,36,2.6,8,0.6,0,0,176,12.9,1148,84.2,6,0,0,5,47.4,1394,100,6.40432099,55535,2.10,,,,,,,,,8,,150,253,382,294,13.90,23.40,35.40,27.20,-106.3427076,40.66623861,0.9496040317
08059,Colorado,Jefferson,579581,18.9,17.4,7506,1.3,7159,1.2,18484,3.2,786,0.1,92099,15.9,447184,77.2,6026,1,1,1,49.7,36864,6.9,6.59190396,94401,2.80,45.4,-3.90,,,,,,,3,,"20,549","82,874","116,802","202,518",4.90,19.60,27.60,47.90,-105.2504738,39.58646067,0.9125998872
08061,Colorado,Kiowa,1452,23.6,24.5,8,0.6,18,1.2,7,0.5,4,0.3,140,9.6,1263,87,5,0,0,5,50.2,1398,100,0.48309179,61430,1.80,,,,,,,,,36,,27,252,463,189,2.90,27.10,49.70,20.30,-102.7389041,38.43263854,0.951303155
08063,Colorado,Kit Carson,6950,25.6,20.6,47,0.7,116,1.7,56,0.8,15,0.2,1293,18.6,5399,77.7,114,2,0,3,49.5,4027,48.7,7.84544859,56272,1.90,55.5,-1.70,,,,,,,9,,517,"1,392","2,007",871,10.80,29.10,41.90,18.20,-102.60233,39.30507096,0.94579413
08065,Colorado,Lake,7407,20.8,14.5,58,0.8,235,3.2,76,1,6,0.1,2604,35.2,4496,60.7,288,4,1,7,46.3,2271,31.1,8.59591299,64416,2.60,43,-10.10,,,,,,,23,,629,"1,288","1,519","1,931",11.70,24.00,28.30,36.00,-106.344854,39.20226223,0.9278828096
08067,Colorado,La Plata,56250,18,19.9,361,0.6,4352,7.7,468,0.8,55,0.1,7314,13,44002,78.2,262,0,0,1,49.3,30774,59.9,2.84749823,74774,3.00,47.8,-5.60,,,,,,,4,,"1,363","8,171","11,691","18,796",3.40,20.40,29.20,47.00,-107.843327,37.28655123,0.8809843717
08069,Colorado,Larimer,362533,18.8,16.9,3874,1.1,4124,1.1,8596,2.4,410,0.1,45017,12.4,295205,81.4,3431,1,1,1,50,34938,11.7,5.51808162,78681,2.70,45.4,-5.30,,,,,,,5,,"8,680","41,169","69,681","116,607",3.70,17.40,29.50,49.40,-105.4615545,40.6665145,0.9234548925
08071,Colorado,Las Animas,14633,17.8,25.4,279,1.9,572,3.9,228,1.6,20,0.1,5953,40.7,7790,53.2,308,2,1,4,47.2,6326,40.8,5.46582975,42708,4.60,45.5,0.40,,,25.61,,49.3,,13,,"1,259","2,830","4,569","1,997",11.80,26.60,42.90,18.70,-104.0385309,37.31577175,0.8975728155
08073,Colorado,Lincoln,5688,19.6,17.2,313,5.5,96,1.7,69,1.2,17,0.3,899,15.8,4252,74.8,160,3,,,40.8,5467,100,4.81254506,51975,2.90,,-2.80,,,,,,,8,,474,"2,083",947,703,11.30,49.50,22.50,16.70,-103.5137335,38.98742236,0.8948943662
08075,Colorado,Logan,21487,18.1,18.1,931,4.3,404,1.9,219,1,28,0.1,3820,17.8,16065,74.8,435,2,1,4,42.7,6621,29.2,4.21411776,53234,2.80,50.1,-1.30,,,,,,,8,,"1,302","5,851","4,954","3,078",8.60,38.50,32.60,20.30,-103.1101132,40.72463929,0.9094839356
08077,Colorado,Mesa,157335,20.9,20.5,1184,0.8,2535,1.6,1676,1.1,221,0.1,24030,15.3,126575,80.4,1314,1,1,1,50.3,18599,12.7,3.924719,63531,3.40,46.6,-1.90,,,,,,,9,,"9,126","29,507","37,707","31,642",8.50,27.30,34.90,29.30,-108.4664844,39.01825229,0.9375718977
08079,Colorado,Mineral,924,12.9,28.9,5,0.5,5,0.5,6,0.6,0,0,61,6.6,833,90.2,0,0,0,8,49.8,712,100,0.97205346,62213,2.80,,,,,,,,,3,,14,89,190,377,2.10,13.30,28.40,56.30,-106.9241901,37.66954135,0.9598965071
08081,Colorado,Moffat,13185,24.9,16.8,99,0.8,208,1.6,100,0.8,13,0.1,2230,16.9,10409,78.9,395,3,1,5,48.3,3774,27.4,7.39663093,64133,3.20,48.6,-0.50,,,21.18,,42.5,,15,,717,"3,748","2,791","1,684",8.00,41.90,31.20,18.80,-108.2075581,40.61858161,0.9438527085
08083,Colorado,Montezuma,26175,21.1,24,108,0.4,3739,14.3,184,0.7,32,0.1,3360,12.8,18780,71.7,229,1,0,2,50.3,17155,67.2,2.27720097,53337,3.80,46.4,-0.60,,,,,,,7,,"1,693","5,553","5,743","5,567",9.10,29.90,30.90,30.00,-108.5964924,37.33893986,0.8216070888
08085,Colorado,Montrose,43168,20.6,25.1,214,0.5,823,1.9,373,0.9,82,0.2,9088,21.1,32531,75.4,1603,4,3,5,50.4,18570,45,6.66375885,56686,3.40,45.1,-4.20,,,,,,,8,,"3,402","9,615","9,289","8,027",11.20,31.70,30.60,26.50,-108.2688129,38.4024194,0.9415770278
08087,Colorado,Morgan,29008,26.1,16,1073,3.7,601,2.1,253,0.9,127,0.4,10808,37.3,16407,56.6,1822,7,5,9,48.6,9165,32.5,13.5612415,61849,3.20,47.8,-0.60,,,,,,,5,,"3,600","5,826","5,973","3,270",19.30,31.20,32.00,17.50,-103.8102221,40.26279879,0.9057047096
08089,Colorado,Otero,18594,23.6,20.5,212,1.1,786,4.2,169,0.9,43,0.2,8005,43.1,9821,52.8,296,2,1,3,50.3,6479,34.4,5.69167804,45658,4.20,43.2,4.30,,,,,,,5,,"1,539","4,040","4,678","2,401",12.20,31.90,37.00,19.00,-103.7166632,37.90245342,0.8974232185
08091,Colorado,Ouray,5035,13.8,30.2,8,0.2,43,0.9,40,0.8,9,0.2,366,7.3,4509,89.6,13,0,0,2,49.4,4436,100,1.96950445,80686,3.10,,-9.30,,,,,,,1,,55,542,"1,546","1,843",1.40,13.60,38.80,46.20,-107.7693048,38.15498465,0.9612077584
08093,Colorado,Park,17720,14.8,23.2,170,1,262,1.5,170,1,13,0.1,1240,7,15614,88.1,36,0,0,1,46.8,16206,100,2.96113156,84361,2.60,48.6,-9.20,Too large in land size,,,,,,11,,353,"3,502","5,439","4,596",2.50,25.20,39.20,33.10,-105.7172304,39.11969049,0.944711158
08095,Colorado,Phillips,4512,25.6,22.1,31,0.7,59,1.3,25,0.6,5,0.1,1075,23.8,3310,73.4,236,6,2,9,49.9,4442,100,13.1310792,56577,2.10,,-1.10,,,,,,,2,,377,800,931,742,13.20,28.10,32.70,26.00,-102.3573987,40.59394842,0.9576368216
08097,Colorado,Pitkin,17348,14.9,21.9,166,1,112,0.6,371,2.1,20,0.1,1929,11.1,14612,84.2,31,0,0,1,47.8,7580,44.2,11.6477749,96316,3.30,42,-16.10,,,,,,,2,,335,"1,831","2,897","8,384",2.50,13.60,21.50,62.30,-106.9159345,39.21732141,0.9460154242
08099,Colorado,Prowers,11996,26.1,18.3,107,0.9,254,2.1,67,0.6,5,0,4792,39.9,6761,56.4,429,4,2,6,49.8,4755,37.9,10.4049121,48337,2.80,48.3,0.20,,,18.97,,46.5,,13,,"1,374","2,255","2,776","1,301",17.80,29.30,36.00,16.90,-102.3932762,37.95519022,0.9389558896
08101,Colorado,Pueblo,169622,22.1,19.1,3240,1.9,5783,3.4,2025,1.2,340,0.2,74084,43.7,86451,51,1625,1,1,1,50.4,22513,14.2,3.47694083,56311,4.40,39.2,1.30,,,,,,,17,,"10,891","33,834","43,094","27,215",9.50,29.40,37.50,23.70,-104.5124892,38.17377693,0.8951202134
08103,Colorado,Rio Blanco,6476,23.4,18.3,83,1.3,98,1.5,47,0.7,10,0.2,730,11.3,5416,83.6,109,2,0,4,48.1,6666,100,2.76875483,65334,3.70,56.7,-3.10,,,,,,,2,,368,"1,420","1,496","1,029",8.50,32.90,34.70,23.90,-108.2172628,39.97993245,0.9361400189
08105,Colorado,Rio Grande,11408,21.5,22.1,90,0.8,434,3.8,67,0.6,6,0.1,5066,44.4,5910,51.8,174,2,0,3,49.9,7493,62.5,4.81014889,52353,4.20,44.8,0.40,,,20.11,,50.4,,5,,871,"2,331","2,472","2,306",10.90,29.20,31.00,28.90,-106.3829289,37.58223621,0.9142174221
08107,Colorado,Routt,25091,17.4,17.9,267,1.1,175,0.7,241,1,23,0.1,1763,7,22453,89.5,185,1,0,1,47.8,10621,45.2,5.86154217,93776,2.50,50.9,-7.70,,,,,,,2,,622,"3,035","5,540","9,498",3.30,16.20,29.60,50.80,-106.9915083,40.48549841,0.9555946792
08109,Colorado,Saguache,6471,19.2,25.5,61,0.9,240,3.7,61,0.9,2,0,2291,35.4,3819,59,139,2,1,4,49.8,6108,100,10.7915894,43366,3.40,45.3,-2.40,,,,,,,16,,635,"1,460","1,453","1,212",13.30,30.70,30.50,25.50,-106.2809773,38.08034572,0.91135774
08111,Colorado,San Juan,733,12.4,24.8,2,0.3,8,1.1,6,0.8,0,0,105,14.3,598,81.6,25,4,0,14,45.3,699,100,3.30882353,54146,2.60,,,,,,,,,29,,19,166,136,234,3.40,29.90,24.50,42.20,-107.6759098,37.7637698,0.949197861
08113,Colorado,San Miguel,8074,16.9,17,46,0.6,124,1.5,84,1,6,0.1,957,11.9,6818,84.4,199,3,1,4,46.7,7359,100,8.83534137,79742,3.10,,-17.20,,,,,,,2,,107,"1,078","1,316","3,741",1.70,17.30,21.10,59.90,-108.405806,38.00399367,0.9474398519
08115,Colorado,Sedgwick,2336,19.1,29.7,17,0.7,39,1.7,31,1.3,5,0.2,409,17.5,1838,78.7,24,1,0,4,50.8,2379,100,2.9787234,45645,2.60,,-0.40,,,,,,,5,,197,460,700,392,11.30,26.30,40.00,22.40,-102.3519638,40.87598057,0.9380530973
08117,Colorado,Summit,30941,15.8,15.3,361,1.2,295,1,489,1.6,61,0.2,4643,15,24982,80.7,479,2,1,3,45.2,5464,19.5,11.1012521,90297,2.20,48.4,-17.10,,,,,,,1,,"1,320","4,207","5,888","12,777",5.50,17.40,24.30,52.80,-106.1163363,39.63420352,0.9431948027
08119,Colorado,Teller,24926,16.5,24.7,247,1,381,1.5,274,1.1,37,0.1,2066,8.3,21570,86.5,15,0,0,1,49.2,14618,62.6,3.35918384,76715,3.00,45.6,-5.10,,,,,,,3,,414,"4,782","6,892","7,089",2.20,24.90,35.90,37.00,-105.1619203,38.88227296,0.9346625406
08121,Colorado,Washington,4861,22.7,21.4,61,1.3,21,0.4,25,0.5,8,0.2,541,11.1,4147,85.3,65,1,0,3,47,4814,100,3.14049587,57522,2.30,,-0.30,,,,,,,14,,290,"1,052","1,290",747,8.60,31.10,38.20,22.10,-103.2015041,39.97109881,0.96
08123,Colorado,Weld,340036,25.7,12.6,4453,1.3,6098,1.8,6559,1.9,627,0.2,104188,30.6,217293,63.9,11731,4,3,4,49.2,51728,20.5,8.72619213,84826,3.20,44.3,-3.90,,,,,,,6,,"24,878","53,024","69,389","61,569",11.90,25.40,33.20,29.50,-104.3930144,40.55487277,0.9216846366
08125,Colorado,Yuma,9941,27.6,18.5,39,0.4,118,1.2,58,0.6,29,0.3,2641,26.6,7089,71.3,722,8,,,49.4,6519,64.9,10.3783891,56161,2.00,54.3,-3.30,,,,,,,6,,819,"1,858","2,326","1,538",12.50,28.40,35.60,23.50,-102.4246098,40.00284508,0.9605852493
09001,Connecticut,Fairfield,959768,22,16.5,109024,11.4,6419,0.7,57205,6,1123,0.1,204687,21.3,573556,59.8,53730,6,6,6,51,42028,4.6,21.7090522,100703,4.10,42.9,-5.70,,,,,,,3,,"64,225","136,454","131,954","322,329",9.80,20.80,20.10,49.20,-73.38919037,41.26973285,0.7788590298
09003,Connecticut,Hartford,896854,20.8,17.7,122802,13.7,5796,0.6,56304,6.3,1143,0.1,174409,19.4,525569,58.6,35486,4,4,4,51.1,48354,5.4,15.3336761,79958,4.30,41.6,-3.00,,,,,,,4,,"60,946","162,392","158,752","246,594",9.70,25.80,25.30,39.20,-72.73301048,41.80669859,0.7411445459
09005,Connecticut,Litchfield,185000,17.7,22.8,3682,2,707,0.4,4048,2.2,165,0.1,15041,8.1,159247,86.1,2326,1,1,2,50.1,78722,41.4,7.89538384,84689,3.90,44.3,-2.80,,,,,,,3,,"8,426","40,662","38,925","49,906",6.10,29.50,28.20,36.20,-73.24526767,41.79242134,0.9291019431
09007,Connecticut,Middlesex,164759,16.8,21.7,8474,5.1,509,0.3,5455,3.3,125,0.1,11770,7.1,135692,82.4,2294,1,1,2,51,40657,24.5,7.64837667,94735,3.60,44.7,-4.40,,,,,,,6,,"6,084","30,523","31,813","52,937",5.00,25.20,26.20,43.60,-72.5354823,41.46358412,0.8833332302
09009,Connecticut,New Haven,863700,20,18.1,115793,13.4,5885,0.7,38349,4.4,995,0.1,174191,20.2,517880,60,31877,4,4,4,51.6,31394,3.6,12.2115952,75094,4.30,41.9,-2.80,,,,,,,5,,"58,496","178,934","145,546","221,536",9.70,29.60,24.10,36.60,-72.93235204,41.41072833,0.7662650772
09011,Connecticut,New London,268805,19.1,19.3,15347,5.7,3524,1.3,11647,4.3,406,0.2,32278,12,199149,74.1,6005,2,,,49.6,70729,25.8,8.5390935,78552,4.20,42.8,-3.10,,,,,,,8,,"13,223","54,331","56,768","65,643",7.00,28.60,29.90,34.60,-72.10232387,41.48708483,0.8309465319
09013,Connecticut,Tolland,150293,17,16.9,5476,3.6,446,0.3,7766,5.2,118,0.1,9899,6.6,124286,82.7,1343,1,1,1,49.7,58340,38.2,7.07481374,86430,3.80,46.1,-4.90,,,,,,,7,,"4,959","25,023","24,787","41,014",5.20,26.10,25.90,42.80,-72.33642171,41.85510643,0.8829415671
09015,Connecticut,Windham,116418,19.4,17.9,2379,2,898,0.8,1695,1.5,109,0.1,14837,12.7,94947,81.6,2532,2,2,3,50,58931,49.8,5.05843588,71581,4.30,42.9,-1.60,,,,,,,3,,"8,662","28,630","24,656","20,007",10.60,34.90,30.10,24.40,-71.98737539,41.83006633,0.9174618157
10001,Delaware,Kent,184149,22.9,17.9,49557,26.9,1391,0.8,4343,2.4,241,0.1,14446,7.8,108289,58.8,2556,2,1,2,51.7,43774,27,5.66576289,64670,5.20,39.7,-0.70,,,,,,,6,,"13,512","39,620","36,668","31,039",11.20,32.80,30.30,25.70,-75.56844621,39.08639126,0.6498750293
10003,Delaware,New Castle,571708,21.3,16.6,146720,25.7,3001,0.5,34573,6,442,0.1,62977,11,313090,54.8,10943,2,2,2,51.3,24783,4.6,11.1297653,74088,4.40,37.1,-1.50,,,,,,,6,,"29,998","115,392","100,265","147,694",7.60,29.30,25.50,37.50,-75.64791441,39.58150592,0.6377368302
10005,Delaware,Sussex,247527,18,29.8,27658,11.2,2732,1.1,3503,1.4,480,0.2,23790,9.6,186674,75.4,5427,2,2,3,51.5,81428,41.3,7.14585042,70500,4.40,37.9,-2.00,,,,,,,7,,"18,278","54,916","49,595","53,641",10.40,31.10,28.10,30.40,-75.38998106,38.66089142,0.8295321456
11001,District of Columbia,District of Columbia,670050,18.8,12.8,295889,44.2,4067,0.6,30342,4.5,1063,0.2,76919,11.5,249751,37.3,14307,2,2,2,52.4,0,0,14.05,91072,4.70,35.8,-1.60,,,,,,,2,,"37,934","75,562","74,761","299,469",7.80,15.50,15.30,61.40,-77.01629654,38.90478149,0.4625401226
12001,Florida,Alachua,279238,18.2,15.2,55858,20,1034,0.4,17315,6.2,214,0.1,30788,11,167683,60.1,2930,1,1,1,51.7,52419,21.2,10.2505054,56006,2.80,38.1,-2.20,,,,,,,7,,"11,583","34,518","47,001","76,720",6.80,20.30,27.70,45.20,-82.35823348,29.67497355,0.6990502105
12003,Florida,Baker,28715,23.8,14.6,4120,14.3,149,0.5,237,0.8,21,0.1,952,3.3,22740,79.2,47,0,0,1,46.9,16131,59.5,1.75634335,60994,2.80,39.6,0.90,,,33.01,,44.7,,17,,"2,687","8,294","5,088","2,878",14.20,43.80,26.90,15.20,-82.28452499,30.3309289,0.8242575932
12005,Florida,Bay,179168,20.8,18.5,19682,11,1478,0.8,4358,2.4,333,0.2,13225,7.4,135227,75.5,2872,2,1,2,50.2,20262,12,5.78522813,60106,2.70,39.7,0.30,,,,,,,10,,"12,820","36,401","46,925","33,073",9.90,28.20,36.30,25.60,-85.62005473,30.26520819,0.820227408
12007,Florida,Bradford,28540,19.7,18.1,5666,19.9,185,0.6,191,0.7,14,0,1399,4.9,20615,72.2,31,0,0,1,44.2,21541,75.5,2.88743097,54911,3.10,38.9,0.90,,,35.63,,46.4,,0,,"3,665","8,435","5,843","2,396",18.00,41.50,28.70,11.80,-82.16822073,29.94967764,0.7640681286
12009,Florida,Brevard,616628,18.2,24.2,62183,10.1,2974,0.5,16629,2.7,801,0.1,71676,11.6,449277,72.9,6703,1,1,1,50.7,27573,5.1,8.61222452,65280,2.80,39.5,-1.00,,,,,,,12,,"33,648","118,401","154,084","141,951",7.50,26.40,34.40,31.70,-80.73218698,28.29324349,0.8295645228
12011,Florida,Broward,1930983,21,17.5,554688,28.7,8463,0.4,75703,3.9,2455,0.1,618443,32,647872,33.6,132970,7,7,8,50.9,296,0,33.6610881,65536,2.90,40.3,-4.50,,,,,,,2,,"137,900","368,968","396,510","471,290",10.00,26.80,28.80,34.30,-80.48723143,26.15220703,0.6273713616
12013,Florida,Calhoun,13641,20,19,1707,12.5,210,1.5,124,0.9,24,0.2,859,6.3,10484,76.9,80,1,0,1,45.6,9874,67.5,3.55164774,43210,3.30,40.3,1.00,,,32.16,,55.3,,20,,"2,267","4,279","2,587","1,017",22.30,42.20,25.50,10.00,-85.19679907,30.40604523,0.8264668277
12015,Florida,Charlotte,194843,11.8,40.5,10656,5.5,784,0.4,2835,1.5,145,0.1,15920,8.2,161953,83.1,2824,2,1,2,50.9,14213,8.9,10.347887,59547,3.40,41.9,-4.40,,,,,,,14,,"12,677","51,705","51,683","37,650",8.20,33.60,33.60,24.50,-81.91185513,26.90579274,0.9045867979
12017,Florida,Citrus,158083,15,36.3,4733,3,758,0.5,2637,1.7,101,0.1,10554,6.7,137058,86.7,1095,1,0,1,51.2,48753,34.5,5.66368713,48237,4.10,40.8,1.90,,,,,,,16,,"12,231","46,072","39,294","23,478",10.10,38.10,32.50,19.40,-82.47793438,28.84873662,0.9276648585
12019,Florida,Clay,222361,23.1,16.6,27562,12.4,1252,0.6,7072,3.2,397,0.2,24628,11.1,155803,70.1,3013,1,1,2,50.5,28570,15,6.96701738,76711,2.60,40.9,-1.10,,,,,,,9,,"12,043","42,300","54,742","39,934",8.10,28.40,36.70,26.80,-81.85783045,29.98317912,0.796212292
12021,Florida,Collier,385980,16.6,33.1,25356,6.6,1936,0.5,6314,1.6,398,0.1,111763,29,238315,61.7,27777,8,7,8,50.4,27284,8.5,24.9608433,75799,2.80,40.4,-9.70,,,,,,,7,,"30,001","74,930","72,146","107,989",10.50,26.30,25.30,37.90,-81.34769003,26.11069361,0.8923564723
12023,Florida,Columbia,70385,21.7,19.7,12820,18.2,471,0.7,766,1.1,71,0.1,4858,6.9,50238,71.4,493,1,0,1,48,41908,62.1,3.76383764,52035,3.20,38.3,1.40,,,,,,,4,,"6,451","17,405","16,494","7,348",13.50,36.50,34.60,15.40,-82.62162029,30.22445638,0.7755526193
12027,Florida,DeSoto,34408,18.5,22.6,4037,11.7,413,1.2,233,0.7,83,0.2,11056,32.1,18608,54.1,2137,7,5,8,44,16121,46.2,16.4619907,43256,3.30,37,-3.60,,,33.33,,52.9,,7,,"6,215","10,331","4,964","3,141",25.20,41.90,20.10,12.70,-81.80959835,27.18691656,0.8408618899
12029,Florida,Dixie,17102,18.6,24,1608,9.4,126,0.7,88,0.5,7,0,763,4.5,14194,83,103,1,0,1,44.8,12649,77,2.08675549,39029,3.30,41.1,1.20,,,35.71,,69.5,,3,,"2,382","5,967","2,770","1,353",19.10,47.80,22.20,10.80,-83.15870461,29.60806814,0.8743624318
12031,Florida,Duval,999935,22.6,14.9,298357,29.8,4770,0.5,50605,5.1,1207,0.1,113454,11.3,508458,50.8,24688,3,2,3,51.3,25163,2.9,10.8108488,60121,3.00,36.7,0.90,,,,,,,10,,"64,073","189,218","208,644","212,489",9.50,28.10,30.90,31.50,-81.67063889,30.33214142,0.6027021044
12033,Florida,Escambia,322390,21,17.4,72600,22.5,2857,0.9,10740,3.3,638,0.2,20498,6.4,205308,63.7,3993,1,1,2,50.5,24709,8.3,4.92035876,54492,3.00,38.1,1.90,,,,,,,12,,"20,274","58,926","77,404","59,065",9.40,27.30,35.90,27.40,-87.36273986,30.66830369,0.6883429912
12035,Florida,Flagler,120932,16.4,31.1,11966,9.9,555,0.5,3069,2.5,124,0.1,13765,11.4,89560,74.1,2278,2,1,3,51.6,9877,10.3,11.7230887,65783,3.40,40.2,-2.70,,,,,,,18,,"6,736","28,142","28,962","23,877",7.70,32.10,33.00,27.20,-81.31358003,29.46163468,0.8391571198
12037,Florida,Franklin,12572,15,24.6,1613,12.8,119,0.9,58,0.5,15,0.1,759,6,9836,78.2,97,1,0,2,43,7858,68,3.34867076,44684,2.80,36,-0.30,,,,,,,1,,"2,026","3,071","2,475","2,026",21.10,32.00,25.80,21.10,-84.82018866,29.8613762,0.8343578395
12039,Florida,Gadsden,43714,21.4,19.3,23707,54.2,281,0.6,304,0.7,75,0.2,4886,11.2,14275,32.7,1097,3,2,3,52.5,30329,65.4,5.30,45678,3.80,33.8,0.90,,,36.23,,,,3,,"5,987","11,085","7,973","6,106",19.20,35.60,25.60,19.60,-84.61383904,30.57930999,0.4168562405
12041,Florida,Gilchrist,18360,20.3,21.1,1022,5.6,144,0.8,109,0.6,19,0.1,1231,6.7,15635,85.2,291,2,1,3,48.2,14215,83.9,3.36644905,52168,3.00,41.3,-0.70,,,,,,,0,,"1,692","5,203","3,916","1,548",13.70,42.10,31.70,12.50,-82.80043459,29.72600841,0.9140058247
12043,Florida,Glades,12234,14.2,28.1,1566,12.8,642,5.2,93,0.8,11,0.1,2718,22.2,7236,59.1,614,5,3,8,44,9101,70.6,9.75080446,46389,3.20,,-7.70,,,34.29,,65.5,,24,,"2,962","3,203","2,222","1,300",30.60,33.10,22.90,13.40,-81.1889838,26.95642237,0.7914494999
12045,Florida,Gulf,14363,18.6,26,1596,11.1,112,0.8,100,0.7,4,0,483,3.4,11760,81.9,77,1,0,1,49.8,12228,77.1,2.41046403,51684,2.70,36.1,1.40,,,,,,,2,,"1,570","3,889","3,651","2,729",13.30,32.80,30.80,23.10,-85.23056011,29.95068747,0.8484557411
12047,Florida,Hamilton,13993,19.2,18.6,4485,32.1,170,1.2,114,0.8,8,0.1,1539,11,7512,53.7,213,2,0,3,41.5,9395,63.5,3.81946878,39522,4.00,37.3,1.00,,,,,,,10,,"2,504","4,752","2,201",941,24.10,45.70,21.20,9.00,-82.94763284,30.49612932,0.6263342745
12049,Florida,Hardee,25425,25.9,16.9,1724,6.8,328,1.3,311,1.2,52,0.2,11233,44.2,11737,46.2,1616,7,5,9,46.9,13258,47.8,11.2788306,45964,3.90,40.7,-2.70,,,31.11,,,,13,,"3,940","7,693","3,252","1,698",23.80,46.40,19.60,10.20,-81.80953792,27.49319733,0.8829692044
12051,Florida,Hendry,40313,26.7,13.7,4260,10.6,857,2.1,439,1.1,92,0.2,22781,56.5,12012,29.8,5136,14,11,17,47.1,14831,37.9,27.9786677,48841,4.70,38.8,-1.30,,,,,,,7,,"7,692","8,913","6,341","2,125",30.70,35.60,25.30,8.50,-81.16511547,26.55374425,0.8275290216
12053,Florida,Hernando,200638,18.6,26.6,10967,5.5,1111,0.6,3057,1.5,216,0.1,32492,16.2,149735,74.6,2373,1,1,2,51.4,33476,19.4,6.94268074,56443,3.60,40.4,-0.30,,,,,,,12,,"15,830","48,346","51,681","27,894",11.00,33.60,36.00,19.40,-82.42535431,28.55404893,0.8933458087
12055,Florida,Highlands,103296,17,35.7,10008,9.7,752,0.7,1646,1.6,107,0.1,22809,22.1,66963,64.8,3025,3,2,4,50.9,20810,21.1,10.9039089,47820,4.20,39.5,-1.40,,,,,,,18,,"10,983","28,122","24,191","14,640",14.10,36.10,31.00,18.80,-81.34078347,27.3428855,0.8515271148
12057,Florida,Hillsborough,1478194,22,14.8,240898,16.3,8052,0.5,67802,4.6,2082,0.1,447921,30.3,687238,46.5,83560,6,6,6,50.8,43181,3.5,17.0123934,65818,2.80,38.7,-2.70,,,,,,,8,,"107,589","262,090","271,547","353,457",10.80,26.30,27.30,35.50,-82.30867294,27.92948052,0.7355364673
12059,Florida,Holmes,19784,20.7,20,1388,7,233,1.2,154,0.8,37,0.2,656,3.3,16918,85.5,103,1,0,1,46.3,15697,78.8,2.49613999,44139,3.10,41.6,3.90,,,,,,,19,,"2,789","6,541","3,597","1,364",19.50,45.80,25.20,9.50,-85.81424864,30.86794622,0.8887924875
12061,Florida,Indian River,163662,15.3,34.3,14661,9,778,0.5,2715,1.7,92,0.1,21828,13.3,121751,74.4,2486,2,1,2,51.7,6857,5,10.0050337,61351,3.40,38.9,-4.30,,,,,,,13,,"10,875","33,926","38,566","39,249",8.90,27.70,31.50,32.00,-80.60559316,27.69396994,0.8668024465
12063,Florida,Jackson,47694,19.1,20.2,12336,25.9,425,0.9,321,0.7,117,0.2,2563,5.4,31108,65.2,574,1,1,2,45.5,37490,75.4,3.01617429,42721,3.20,40,3.40,,,,,,,5,,"5,848","14,007","10,635","4,641",16.60,39.90,30.30,13.20,-85.21596518,30.79547704,0.6963654117
12065,Florida,Jefferson,14555,16.9,24.5,4564,31.4,85,0.6,109,0.7,5,0,687,4.7,8912,61.2,45,0,0,1,47.3,14761,100,3.8922368,56130,3.20,36.7,-0.30,,,,,,,6,,"1,745","3,738","2,972","2,320",16.20,34.70,27.60,21.50,-83.89500601,30.43779668,0.6462903115
12067,Florida,Lafayette,8382,19.3,17.2,1049,12.5,70,0.8,28,0.3,9,0.1,1169,13.9,5965,71.2,221,3,0,5,43.2,8870,100,5.11207685,45732,3.10,,-0.10,,,38.57,,56.2,,5,,"1,577","2,549","1,415",437,26.40,42.60,23.70,7.30,-83.18086561,29.98555842,0.8416647017
12069,Florida,Lake,395804,19.2,26.5,43570,11,2427,0.6,9417,2.4,738,0.2,70970,17.9,263713,66.6,7885,2,2,3,51.2,57194,19.3,8.85520721,64662,3.00,38.1,-2.20,,,,,,,12,,"26,743","87,063","93,993","70,206",9.60,31.30,33.80,25.30,-81.71135257,28.76121706,0.8284836961
12071,Florida,Lee,787976,17.3,29.1,63762,8.1,4046,0.5,14190,1.8,931,0.1,187359,23.8,510305,64.8,40028,6,5,6,50.8,36013,5.8,16.6174328,66426,3.10,39.1,-6.00,,,,,,,12,,"58,139","175,221","170,001","164,805",10.20,30.80,29.90,29.00,-81.84068841,26.57801557,0.866581433
12073,Florida,Leon,292817,18.8,14.5,92892,31.7,1053,0.4,10580,3.6,222,0.1,20560,7,161592,55.2,2302,1,1,1,52.6,33911,12.3,6.79238603,57246,3.00,37.8,-2.30,,,,,,,9,,"11,864","33,154","47,338","82,078",6.80,19.00,27.10,47.10,-84.27761309,30.45806493,0.6117173221
12075,Florida,Levy,44158,19.6,25.3,3974,9,342,0.8,403,0.9,43,0.1,4197,9.5,34599,78.4,614,2,1,2,50.8,37557,92,4.06145992,45494,3.50,38.6,1.00,,,,,,,4,,"3,877","13,196","9,383","4,708",12.40,42.30,30.10,15.10,-82.74249558,29.31952768,0.8677216089
12077,Florida,Liberty,7900,17,15.9,1537,19.5,96,1.2,38,0.5,2,0,580,7.3,5557,70.3,40,1,0,2,37.8,8365,100,5.06873879,48271,3.20,,0.70,,,,,,,10,,"1,323","2,383","1,272",774,23.00,41.40,22.10,13.50,-84.88318825,30.24145856,0.7705643233
12079,Florida,Madison,18288,18.8,21.2,6645,36.3,152,0.8,93,0.5,4,0,1180,6.5,9981,54.6,159,1,0,2,46.6,15381,80,4.08141171,43444,3.30,35.4,2.40,,,31.96,,55.2,,12,,"2,629","4,958","4,112","1,762",19.50,36.80,30.50,13.10,-83.46989512,30.44431386,0.5959266585
12081,Florida,Manatee,412703,17.7,28.4,34726,8.4,2303,0.6,9940,2.4,413,0.1,70481,17.1,289955,70.3,11256,3,3,3,51.4,18693,5.8,12.6303654,67929,2.90,37.5,-4.90,,,,,,,6,,"28,955","86,428","86,138","95,733",9.70,29.10,29.00,32.20,-82.31571914,27.47189899,0.8575941287
12083,Florida,Marion,385915,18.8,28.7,48569,12.6,2168,0.6,6999,1.8,335,0.1,59704,15.5,262614,68,6435,2,1,2,51.8,102796,31,7.38580421,54555,3.40,38.3,0.80,,,,,,,12,,"32,053","98,785","85,902","59,174",11.60,35.80,31.10,21.40,-82.05662463,29.21028272,0.8186649461
12085,Florida,Martin,159942,16.1,32,8128,5.1,1870,1.2,2510,1.6,309,0.2,23301,14.6,123597,77.3,3533,2,2,3,50.3,12403,8.5,10.1173365,67059,2.70,39.1,-5.40,,,,,,,10,,"9,692","31,120","39,899","42,027",7.90,25.40,32.50,34.20,-80.43133534,27.07737178,0.899023987
12086,Florida,Miami-Dade,2662777,20.2,16.9,399540,15,8733,0.3,43934,1.6,1355,0.1,1838864,69.1,361215,13.6,520824,21,20,21,51,10095,0.4,53.2540409,58905,2.60,42,-5.20,,,,,,,2,,"335,701","506,656","466,138","608,670",17.50,26.40,24.30,31.70,-80.55914415,25.61511557,0.7901320983
12087,Florida,Monroe,82170,15.7,23.7,5441,6.6,424,0.5,1241,1.5,142,0.2,21132,25.7,52878,64.4,4538,6,5,7,47.7,6369,8.7,19.0710776,68975,1.90,43.7,-5.10,,,,,,,9,,"5,113","17,890","18,448","23,001",7.90,27.80,28.60,35.70,-81.12021765,25.27277607,0.8852232747
12089,Florida,Nassau,94189,19.7,23.1,5683,6,458,0.5,1070,1.1,85,0.1,4906,5.2,80650,85.6,379,0,0,1,50.6,35298,48.1,3.89560426,78069,2.50,37.7,-1.20,,,,,,,12,,"5,563","20,197","18,863","20,796",8.50,30.90,28.80,31.80,-81.80190989,30.61062054,0.9033507842
12091,Florida,Okaloosa,213255,22.5,16.4,20840,9.8,1558,0.7,6894,3.2,505,0.2,21773,10.2,154055,72.2,3185,2,1,2,48.9,21878,12.1,7.1137857,69053,2.40,40.8,-1.00,,,,,,,11,,"10,222","35,339","50,332","47,693",7.10,24.60,35.10,33.20,-86.59219666,30.69101554,0.8077812236
12093,Florida,Okeechobee,40266,21.6,20,3403,8.5,649,1.6,373,0.9,62,0.2,10922,27.1,24692,61.3,1719,5,3,6,46,14618,36.5,12.284334,47642,3.10,39,0.50,,,,,,,27,,"5,457","10,324","7,696","4,684",19.40,36.70,27.30,16.60,-80.88873614,27.3866315,0.8679811807
12095,Florida,Orange,1422746,21.6,12.8,288227,20.3,8725,0.6,83098,5.8,2877,0.2,470271,33.1,551892,38.8,97660,7,7,8,50.7,23402,2,21.3055766,64579,2.90,38.5,-3.80,,,,,,,7,,"100,495","231,759","281,212","340,640",10.50,24.30,29.50,35.70,-81.32311592,28.51429239,0.6776799421
12097,Florida,Osceola,403282,24.2,13.4,41011,10.2,3598,0.9,12220,3,983,0.2,227089,56.3,116673,28.9,36571,10,9,11,50.4,21014,7.8,20.0030122,60495,3.40,40.2,-2.90,,,,,,,15,,"33,743","74,371","82,626","61,263",13.40,29.50,32.80,24.30,-81.14924253,28.06245875,0.7850511919
12099,Florida,Palm Beach,1497987,19,24.5,282668,18.9,9247,0.6,45542,3,1779,0.1,358175,23.9,788508,52.6,101514,7,7,8,51.2,13763,1,25.0062056,70024,2.90,39.3,-5.80,,,,,,,4,,"118,849","254,306","301,015","412,857",10.90,23.40,27.70,38.00,-80.46503899,26.64741122,0.7444421597
12101,Florida,Pasco,584067,20.4,22.1,36839,6.3,3001,0.5,18348,3.1,619,0.1,105710,18.1,409850,70.2,10874,2,2,2,51.1,43990,9.5,9.67208716,59555,3.00,39.1,-1.00,,,,,,,12,,"38,259","133,623","123,782","104,300",9.60,33.40,30.90,26.10,-82.3964731,28.30833195,0.8684214217
12103,Florida,Pinellas,956615,15.7,25.9,99301,10.4,3907,0.4,35162,3.7,1201,0.1,101194,10.6,699250,73.1,20365,2,,,51.7,2603,0.3,11.9226413,61851,2.60,39.6,-2.40,,,,,,,5,,"58,225","197,083","233,176","252,931",7.90,26.60,31.50,34.10,-82.73164012,27.92895178,0.823884472
12105,Florida,Polk,753520,22.1,19.8,111251,14.8,5505,0.7,14636,1.9,1040,0.1,206452,27.4,406454,53.9,29968,4,4,5,50.7,81346,13.5,10.0138932,56344,3.50,39.3,-1.70,,,,,,,13,,"67,511","167,752","155,642","103,948",13.60,33.90,31.50,21.00,-81.69711072,27.94872638,0.7838700319
12107,Florida,Putnam,74167,21.4,23.7,11677,15.7,593,0.8,525,0.7,103,0.1,7919,10.7,52498,70.8,2061,3,2,4,50.4,41765,56.2,3.77099195,38759,4.10,36.9,3.30,,,,,,,7,,"9,495","21,983","14,196","6,673",18.10,42.00,27.10,12.70,-81.7442726,29.60884076,0.8014836597
12109,Florida,St. Johns,292466,21.7,20.5,15153,5.2,1008,0.3,10765,3.7,294,0.1,24328,8.3,235676,80.6,2549,1,1,1,50.9,45179,23.8,7.12942086,94662,2.30,39.3,-5.40,,,,,,,5,,"10,023","41,159","50,973","86,951",5.30,21.80,27.00,46.00,-81.4405388,29.90168542,0.883005938
12111,Florida,St. Lucie,343579,19.7,24.4,71730,20.9,2112,0.6,6940,2,393,0.1,72662,21.1,185197,53.9,8943,3,2,3,50.9,9326,3.4,16.5623333,62378,3.40,37.6,-3.60,,,,,,,15,,"27,918","74,500","77,172","57,367",11.80,31.40,32.60,24.20,-80.47111892,27.377528,0.7312729473
12113,Florida,Santa Rosa,193998,21.9,16.4,12161,6.3,1644,0.8,4363,2.2,354,0.2,12346,6.4,157355,81.1,1193,1,0,1,48.7,31772,21,4.78109856,80837,2.70,42.8,-0.90,,,,,,,10,,"9,992","35,172","46,571","37,741",7.70,27.20,36.00,29.10,-87.02194752,30.70016907,0.867235208
12115,Florida,Sarasota,447057,14,37.2,19208,4.3,1537,0.3,8887,2,303,0.1,45079,10.1,366701,82,7747,2,2,2,52,16394,4.3,12.3316123,71630,2.90,40.2,-5.10,,,,,,,7,,"21,710","91,967","101,780","128,266",6.30,26.80,29.60,37.30,-82.33141981,27.18432942,0.9136279075
12117,Florida,Seminole,470093,20.8,16.4,55291,11.8,2271,0.5,24638,5.2,618,0.1,109342,23.3,270026,57.4,12735,3,3,3,51.3,13348,3.2,13.363628,70470,2.70,41.3,-4.10,,,,,,,6,,"19,249","67,983","104,811","138,702",5.80,20.60,31.70,41.90,-81.23634611,28.71682625,0.7813130706
12119,Florida,Sumter,135638,7,58.2,8981,6.6,573,0.4,1456,1.1,119,0.1,8424,6.2,115080,84.8,1217,1,1,1,50.1,32664,35,5.65955091,69707,4.10,37.6,-3.80,,,,,,,6,,"8,925","34,680","33,430","37,682",7.80,30.20,29.10,32.80,-82.08128977,28.70520781,0.9045447352
12121,Florida,Suwannee,44485,21.3,21.8,5270,11.8,367,0.8,325,0.7,43,0.1,4697,10.6,33268,74.8,739,2,1,3,48.4,34557,83.2,5.16574083,46284,3.20,41.1,0.80,,,,,,,5,,"5,264","12,489","8,125","4,918",17.10,40.60,26.40,16.00,-82.99147597,30.19562156,0.8436824151
12123,Florida,Taylor,21815,19.8,21,4184,19.2,216,1,192,0.9,12,0.1,982,4.5,15821,72.5,129,1,0,1,45,15637,69.3,2.87356322,47083,3.30,39.8,2.10,,,36.88,,61.4,,15,,"2,846","7,091","4,143","1,908",17.80,44.40,25.90,11.90,-83.60328684,30.04712958,0.7624537037
12125,Florida,Union,16335,20.7,14.9,3656,22.4,91,0.6,106,0.6,6,0,983,6,11240,68.8,49,0,0,1,35.1,10478,67.4,2.7823348,48667,2.90,38.1,9.20,,,40.12,,46.5,,19,,"2,670","4,341","3,469","1,292",22.70,36.90,29.50,11.00,-82.37209886,30.04340869,0.7407456198
12127,Florida,Volusia,564412,17.6,25,59263,10.5,2892,0.5,11165,2,523,0.1,90985,16.1,391094,69.3,6387,1,1,1,51,49179,9.9,7.66610946,58246,3.10,39.6,-0.20,,,,,,,11,,"36,146","126,964","140,873","103,599",8.90,31.20,34.60,25.40,-81.18197434,29.05852431,0.8353241424
12129,Florida,Wakulla,34690,20.7,16.1,4669,13.5,256,0.7,243,0.7,35,0.1,1525,4.4,27274,78.6,163,1,0,1,45.8,18982,61.7,2.10810302,71962,2.50,39.5,0.30,,,23.25,,36.5,,3,,"2,849","8,597","7,838","4,816",11.80,35.70,32.50,20.00,-84.40005301,30.16603091,0.8240916111
12131,Florida,Walton,80069,20.6,20.1,4020,5,659,0.8,1075,1.3,151,0.2,5426,6.8,67122,83.8,552,1,0,1,49.5,34746,63.1,5.75936105,64779,2.60,39.5,-2.00,,,,,,,10,,"4,753","15,313","16,497","17,597",8.80,28.30,30.50,32.50,-86.17009489,30.64341925,0.8960181609
12133,Florida,Washington,25436,19.8,17.6,3596,14.1,346,1.4,188,0.7,105,0.4,1034,4.1,19583,77,173,1,0,1,45.6,21050,84.6,3.32980542,47930,3.20,40.7,3.60,,,30.95,,46,,22,,"2,990","7,662","5,278","2,270",16.40,42.10,29.00,12.50,-85.66575949,30.61054912,0.8034089156
13001,Georgia,Appling,18488,24.6,18.6,3457,18.7,107,0.6,166,0.9,44,0.2,1905,10.3,12626,68.3,419,2,1,4,49.9,13028,71.4,3.93952531,46530,3.60,39.1,2.50,,,33.33,,55.4,,23,,"2,742","4,741","3,667","1,199",22.20,38.40,29.70,9.70,-82.28874491,31.749434,0.7713506139
13003,Georgia,Atkinson,8391,25.8,13.8,1297,15.5,156,1.9,92,1.1,100,1.2,2304,27.5,4550,54.2,954,12,8,16,49.2,8375,100,12.7404719,40303,2.70,37.6,3.30,,,45.79,,65.5,,15,,"1,746","1,739","1,208",573,33.20,33.00,22.90,10.90,-82.88008089,31.29704319,0.7689741451
13005,Georgia,Bacon,11079,25.4,17.2,1759,15.9,54,0.5,92,0.8,16,0.1,971,8.8,8050,72.7,163,2,0,4,51.2,7688,69.3,3.56252227,43154,2.90,37.4,3.90,,,,,,,1,,"1,216","2,873","2,404",807,16.70,39.40,32.90,11.10,-82.45269728,31.55377644,0.8016491482
13007,Georgia,Baker,2819,19.2,24.9,1156,41,22,0.8,46,1.6,2,0.1,191,6.8,1366,48.5,3,0,0,2,49.9,3451,100,4.04515522,44106,4.00,,-3.40,,,,,,,28,,350,730,670,389,16.40,34.10,31.30,18.20,-84.44486551,31.32631349,0.5345001683
13009,Georgia,Baldwin,43781,18.4,17.1,18286,41.8,152,0.3,745,1.7,39,0.1,1188,2.7,22854,52.2,317,1,0,1,49,16066,35.1,2.72048757,44685,4.00,32.9,2.00,,,,,,,13,,"3,929","8,989","7,608","6,946",14.30,32.70,27.70,25.30,-83.24970322,33.06940962,0.5407658706
13011,Georgia,Banks,18562,21.2,18.2,518,2.8,140,0.8,210,1.1,25,0.1,1487,8,15999,86.2,230,1,1,2,48.8,17260,93.8,4.91626148,60485,2.20,40.8,0.30,,,,,,,1,,"2,900","3,997","3,588","2,070",23.10,31.80,28.60,16.50,-83.49753835,34.35397657,0.9359239355
