FIPS,State,County,Population,% Black,% American Indian or Alaska Native,% Asian,% Native Hawaiian or Other Pacific Islander,% Hispanic,% Non-Hispanic White,% Rural,Life Expectancy,Income,Upward mobility,Longitude,Latitude
06051,California,Mono,12978,0.8,3,2.2,0.4,27.3,65.2,46.6,98.9,79105,48.1,-118.8872447,37.93940061
08117,Colorado,Summit,30565,1.3,1,1.7,0.2,15.1,80.3,16.1,93,96984,48.4,-106.1163363,39.63420352
08097,Colorado,Pitkin,16876,0.9,0.6,2.3,0.1,11.3,83.9,33,92.7,111291,42,-106.9159345,39.21732141
38065,North Dakota,Oliver,1856,0.5,3,0.4,0,1.7,93.6,100,91.2,79521,,-101.3403504,47.115508
30051,Montana,Liberty,1972,0.6,1.1,0.3,0.1,1.3,94.1,100,89.4,53601,,-111.0252038,48.56122467
08037,Colorado,Eagle,55285,0.9,1.4,1.6,0.1,29.5,66.4,18.5,88.9,105813,45.9,-106.6953848,39.62801893
08113,Colorado,San Miguel,8003,0.6,1.6,1.2,0.1,11.7,84.4,43.2,88.3,94387,,-108.405806,38.00399367
08091,Colorado,Ouray,5100,0.2,0.9,1,0.2,7.4,88.9,100,87.5,90837,,-107.7693048,38.15498465
38033,North Dakota,Golden Valley,1744,0.7,1.5,0.3,0.1,4.9,90.2,100,87.4,64823,,-103.8465777,46.94026181
02016,Alaska,Aleutians West,5122,8.1,9,38.6,3.8,15.8,23.1,100,86.3,"112,218",,-110.2449123,52.79430361
53055,Washington,San Juan,18662,0.7,1.1,1.8,0.2,7,87.3,80.1,86.3,84024,39.1,-122.9534631,48.57856326
56039,Wyoming,Teton,23287,0.7,1.1,1.9,0.2,15.8,79.9,53.9,86,127677,50.4,-110.5896979,43.93456366
08093,Colorado,Park,17939,1,1.4,1,0.1,7.1,87.8,100,85.4,88020,48.6,-105.7172304,39.11969049
51685,Virginia,Manassas Park City,16703,13.5,1.9,11.6,0.3,44.3,28.1,0,85.3,90816,45.1,-77.44401094,38.7704423
51059,Virginia,Fairfax,1138331,10.1,0.6,20.9,0.1,16.8,48.5,1.5,84.9,144632,51.2,-77.27651017,38.83620791
08049,Colorado,Grand,15769,1,0.9,1.1,0.1,10.2,85.9,68.3,84.8,88059,42.7,-106.1184564,40.10246658
49043,Utah,Summit,43036,0.8,0.6,2.2,0.2,10.9,84.4,44.6,84.8,132358,55.6,-110.9558542,40.86838131
02068,Alaska,Denali,1585,3.4,6.6,5.6,0.1,5.3,74.2,100,84.7,"90,897",,-150.0094238,63.67343339
06041,California,Marin,256018,2.4,1,7.1,0.3,17.1,69.7,6,84.7,135960,46.7,-122.7234103,38.07351203
12021,Florida,Collier,397994,6.5,0.5,1.7,0.1,29,61.8,11.6,84.7,81821,40.4,-81.34769003,26.11069361
51013,Virginia,Arlington,234000,10,0.7,11.3,0.1,15.6,59.9,0,84.7,131020,47.9,-77.10098204,38.87844605
06081,California,San Mateo,729181,2.2,0.9,32.8,1.4,23.8,36.7,1.7,84.5,143795,47,-122.328899,37.42298018
16013,Idaho,Blaine,24866,0.4,1.6,1.4,0.1,23.7,73.2,24.3,84.3,98707,43.1,-113.980642,43.41242641
06085,California,Santa Clara,1870945,2.4,1.2,41.4,0.5,24.7,28.3,1.3,84.1,150502,45.6,-121.6951016,37.23169965
46083,South Dakota,Lincoln,70987,2.2,0.8,1.8,0.1,3.1,90.6,25.5,84.1,98387,51.8,-96.7217084,43.27884092
51107,Virginia,Loudoun,432085,7.6,0.5,22.6,0.1,14,52.1,11.9,84.1,167605,48.4,-77.63575211,39.09048044
08107,Colorado,Routt,25007,1.1,0.7,0.9,0.1,7.6,88.8,41.8,84,104407,50.9,-106.9915083,40.48549841
38045,North Dakota,LaMoure,4098,0.3,0.8,0.1,0.1,2.4,95.4,100,83.9,77744,,-98.53552136,46.45686514
35028,New Mexico,Los Alamos,19187,1.1,1.5,7.4,0.1,18.2,70.4,5,83.8,139217,49.2,-106.3065081,35.86926339
31179,Nebraska,Wayne,9871,1.8,1,0.7,0.2,7.2,88.5,38.3,83.7,65664,59.6,-97.11926964,42.20934475
24031,Maryland,Montgomery,1052521,19.2,0.9,16.2,0.1,20.3,41.4,2.7,83.5,118020,47.7,-77.20428439,39.13634899
30059,Montana,Meagher,2013,0.4,1.3,0.4,0,2.2,94.4,100,83.3,53724,,-110.8856024,46.59797522
36061,New York,New York,1596273,12.9,1.3,13.3,0.2,26.2,45.5,0,83.3,95514,40.7,-73.97166722,40.7721053
25019,Massachusetts,Nantucket,14421,9.5,0.5,1.8,0.1,15.9,70.9,15.7,83.2,107613,,-70.07344074,41.28422779
27031,Minnesota,Cook,5708,1.4,8,1,0.1,2.8,84.5,100,83.2,69279,,-90.53150846,47.90304185
30039,Montana,Granite,3502,0.5,1,0.8,0,2.5,93.1,100,83.2,58186,,-113.4401981,46.40415824
32029,Nevada,Storey,4170,1.7,2.2,2.3,0.5,9.6,81.8,89.1,83.2,90171,,-119.5289865,39.44660847
19167,Iowa,Sioux,36050,0.6,0.8,0.9,0.1,12,85.7,56.6,83.1,75994,59.4,-96.17809424,43.08294203
48377,Texas,Presidio,5939,1.9,2,1.9,0,82.9,12.7,100,83.1,43666,53.5,-104.2408125,29.99962168
16085,Idaho,Valley,12464,0.5,1.1,0.7,0.1,5.5,90.8,68.5,83,74166,43.3,-115.5662454,44.76650867
06075,California,San Francisco,808437,5.1,0.8,37.3,0.5,15.9,37.9,0,82.9,135366,47.8,-122.4396708,37.75668116
08051,Colorado,Gunnison,17267,0.6,3,0.9,0,10.4,85.7,57.3,82.9,88855,48.3,-107.0316959,38.66684745
30019,Montana,Daniels,1628,0.2,3.3,0.2,0,4.4,90.1,100,82.9,57141,,-105.5486488,48.78377804
34019,New Jersey,Hunterdon,129777,2.5,0.2,5,0.2,8,82.8,58.3,82.9,137334,51.2,-74.91261058,40.56697742
08019,Colorado,Clear Creek,9355,0.9,1.5,1.4,0.1,8.5,86.3,100,82.8,90350,,-105.6447627,39.68922182
08035,Colorado,Douglas,375988,1.7,0.6,6.2,0.1,10,79.2,9,82.8,140768,47.9,-104.92921,39.32970828
20017,Kansas,Chase,2548,2.2,0.9,0.3,0,7.3,87.1,100,82.8,58580,,-96.59423335,38.30203945
19119,Iowa,Lyon,12179,0.3,0.8,0.4,0.3,3.4,94.1,100,82.7,74061,60,-96.2102221,43.38111289
30097,Montana,Sweet Grass,3715,0.4,1.2,0.9,0,2.9,92.5,100,82.6,68006,,-109.939664,45.813756
24027,Maryland,Howard,335411,20.5,0.5,20.5,0.1,7.9,47.5,11.9,82.5,133068,46.9,-76.93099926,39.25078653
27019,Minnesota,Carver,110034,2.3,0.4,3.8,0,4.6,87.3,24.7,82.5,117602,52.5,-93.8027205,44.82089558
51510,Virginia,Alexandria City,155525,22.3,0.6,6.4,0.2,16.8,51.5,0,82.5,110115,43.7,-77.08548989,38.8171835
15007,Hawaii,Kauai,73810,0.7,0.5,30.1,9.3,11.7,29,42.2,82.4,81939,43.6,-159.5957496,22.03978487
19191,Iowa,Winneshiek,19974,0.9,0.2,1.2,0,2.6,94.4,60.2,82.4,72032,58,-91.84475831,43.29085957
46091,South Dakota,Marshall,4374,0.7,9.5,0.3,0,8.8,82.3,100,82.3,65643,,-97.59865421,45.75863325
06001,California,Alameda,1628997,9.9,1.1,34.5,0.9,22.2,28.8,0.5,82.2,121190,42.5,-121.888612,37.64642367
08013,Colorado,Boulder,327468,1.1,0.9,5.1,0.1,14.1,76.9,9.4,82.2,96584,46.8,-105.3574574,40.09241482
08065,Colorado,Lake,7327,0.9,2.9,1.1,0.1,34.9,60.7,39,82.2,71326,43,-106.344854,39.20226223
41003,Oregon,Benton,97630,1.2,1.1,6.6,0.3,8.6,79.2,19.4,82.2,70117,42.1,-123.428743,44.49161157
06087,California,Santa Cruz,264370,1,1.9,5.3,0.2,34.5,56,13.3,82.1,99256,43.4,-122.0017742,37.0561908
19049,Iowa,Dallas,108016,3.3,0.4,5.3,0.1,6.6,82.9,21.3,82.1,109138,48.5,-94.03970701,41.68489264
25007,Massachusetts,Dukes,20868,4.8,1.2,1.4,0.1,3.7,86.5,31.7,82.1,89136,43.4,-70.65382633,41.39790643
36119,New York,Westchester,990427,13.7,1.1,6.9,0.1,26.3,51.5,4.5,82.1,108037,45,-73.75591281,41.16176335
46039,South Dakota,Deuel,4352,0.8,0.9,0.2,0,3.7,93.6,100,82.1,77694,,-96.66802862,44.76015949
08014,Colorado,Broomfield,76121,1.4,0.9,7.6,0.2,13.9,74.4,0.4,82,114746,,-105.0532651,39.95343909
15003,Hawaii,Honolulu,995638,2.5,0.3,42.6,9.9,10.3,17.5,1.7,82,96304,44.8,-157.9746934,21.45879706
15009,Hawaii,Maui,164351,0.7,0.6,28.6,10.4,12,29.8,21.4,82,89794,42.2,-156.5692176,20.86402572
19103,Iowa,Johnson,156420,8.3,0.4,6.4,0.1,6.1,76.5,16.7,82,74909,45.9,-91.58679259,41.67150873
27101,Minnesota,Murray,8060,0.5,0.6,1.8,0.2,5,91,100,82,68665,54.6,-95.76328482,44.02216709
30031,Montana,Gallatin,124857,0.5,1.1,1.8,0.1,4.6,90.3,34.8,82,83520,47,-111.1703288,45.54097041
36079,New York,Putnam,98045,3.4,0.6,2.5,0.1,19.1,73.5,35,82,112167,51.5,-73.74940843,41.42650368
49033,Utah,Rich,2628,0.6,0.9,0.4,0.2,6.6,90,100,82,71800,,-111.2445372,41.63204523
51095,Virginia,James City,81199,13.7,0.5,2.9,0.1,6.9,73.5,14.2,82,103070,39.3,-76.77717182,37.32794596
16057,Idaho,Latah,40978,0.8,0.9,2.3,0.2,4.7,88.5,34.4,81.9,60108,46.3,-116.7117113,46.81645625
27125,Minnesota,Red Lake,3874,0.9,2,0.4,0.1,4.1,90.8,100,81.9,74120,61.3,-96.09561104,47.87197525
31063,Nebraska,Frontier,2633,0.5,0.6,0.5,0,3.8,93.2,100,81.9,58241,,-100.3936643,40.53024724
34003,New Jersey,Bergen,952997,5.6,0.6,17.6,0.1,22.7,52.7,0.1,81.9,113885,52.4,-74.07441147,40.96008351
38013,North Dakota,Burke,2155,0.7,1.7,0.8,0.1,3.3,91.4,100,81.9,75931,,-102.5181759,48.79096757
38091,North Dakota,Steele,1788,0.4,1.3,0.2,0,2.7,93.7,100,81.9,81081,,-97.72479507,47.45618207
46107,South Dakota,Potter,2438,0.5,3.7,1.1,0.1,2.6,91.3,100,81.9,72374,,-99.9571321,45.06449392
51003,Virginia,Albemarle,114534,9.4,0.4,5.9,0.1,6.1,76,40.4,81.9,94727,41.7,-78.55661903,38.02273165
06059,California,Orange,3151184,1.8,1.1,23.3,0.4,34,38,0.2,81.8,106047,46.4,-117.760976,33.70311134
06061,California,Placer,417772,1.9,1.1,9.7,0.3,15.5,68.4,14.6,81.8,106114,45.4,-120.717846,39.06347097
08015,Colorado,Chaffee,20223,1.7,1.8,1,0.1,10.3,84.5,43.6,81.8,75151,48.1,-106.1940269,38.74728839
16081,Idaho,Teton,12544,0.3,1,0.8,0.2,16.3,81.1,100,81.8,95580,50.1,-111.2078712,43.7599238
19169,Iowa,Story,99673,2.9,0.3,7.9,0,4.1,83.3,25.8,81.8,68720,51.1,-93.46499005,42.03621213
27109,Minnesota,Olmsted,164020,7.6,0.5,6.7,0.1,5.6,77.3,17.4,81.8,88032,47,-92.40209709,44.00380771
34035,New Jersey,Somerset,346875,9.7,0.4,20.7,0.1,16.4,51.5,7.5,81.8,134735,46.7,-74.61645904,40.56375707
41067,Oregon,Washington,600176,2.5,1.2,12.7,0.6,17.9,62.1,5.5,81.8,98706,43.1,-123.0985728,45.55989124
46079,South Dakota,Lake,10972,1.2,1.6,1,0.1,3,91.8,44.2,81.8,74668,52.7,-97.12926365,44.02193107
06091,California,Sierra,3217,0.4,2.6,1,0.2,13.1,81.2,98.8,81.7,63939,,-120.5162324,39.58019892
25017,Massachusetts,Middlesex,1617105,5.4,0.3,14.3,0.1,8.8,69.1,3.5,81.7,118494,47.5,-71.39262102,42.48584344
26089,Michigan,Leelanau,22870,0.5,3.2,0.6,0.1,4.5,90.3,87.6,81.7,89007,43.2,-85.81220561,44.93943424
34027,New Jersey,Morris,511151,3.5,0.4,11.6,0.1,14.9,68.5,8.6,81.7,131562,49.5,-74.54440839,40.86163004
46073,South Dakota,Jerauld,1650,0.2,1.2,0.4,0.2,6.2,89.8,100,81.7,57560,,-98.62965972,44.06637798
48095,Texas,Concho,3340,1.5,2.2,2.2,0.8,39.7,41.8,100,81.7,51191,,-99.86428507,31.32686635
06013,California,Contra Costa,1156966,8.6,1.1,20.2,0.6,27,39.8,1,81.6,119667,43.6,-121.9281273,37.91933375
08039,Colorado,Elbert,27799,1.2,0.9,1.1,0.2,9.2,85.8,100,81.6,120394,46.7,-104.1351629,39.2863996
09001,Connecticut,Fairfield,959768,11.4,0.7,6,0.1,21.3,59.8,5.5,81.6,100703,42.9,-73.38919037,41.26973285
17043,Illinois,DuPage,920901,5.2,0.4,13.5,0.1,15.3,64.2,0.2,81.6,102383,49,-88.08563421,41.85173736
27139,Minnesota,Scott,154520,6.7,1.1,6.9,0.1,6,77.3,18.1,81.6,115687,49.8,-93.53696693,44.64850008
37135,North Carolina,Orange,150477,11.5,0.6,8.2,0.1,8.8,68.8,29,81.6,87780,36.9,-79.12071407,36.06127743
42027,Pennsylvania,Centre,158425,3.7,0.2,6.4,0.1,3.3,84.9,34.6,81.6,67654,47.3,-77.81986792,40.91933775
44005,Rhode Island,Newport,84481,3.6,0.6,2,0.1,6.2,85.3,8.5,81.6,92795,41.3,-71.23906841,41.55667416
48085,Texas,Collin,1158696,11.3,0.7,18.7,0.1,15.9,51.3,6.1,81.6,113943,45.6,-96.57266803,33.18822716
53033,Washington,King,2266789,6.9,1,21.7,0.9,10.5,55,3.3,81.6,116044,43.8,-121.8063614,47.49034831
53059,Washington,Skamania,12460,0.7,2.3,1.3,0.3,8.9,82.6,100,81.6,82132,40.2,-121.9148915,46.02280969
27163,Minnesota,Washington,275912,5.5,0.6,7.8,0.1,5,78.9,13.4,81.5,107649,48.1,-92.88374367,45.03911139
36059,New York,Nassau,1383726,11.8,0.6,12.9,0.1,17.9,55.8,0.4,81.5,135528,49.7,-73.58622623,40.73761782
49051,Utah,Wasatch,36619,0.5,0.7,1.3,0.3,13.8,82.8,27.9,81.5,115793,52.7,-111.169609,40.33064897
06055,California,Napa,134300,2,1.3,9.4,0.4,36,50,14.7,81.4,98580,47.3,-122.3306328,38.5065458
27055,Minnesota,Houston,18800,0.8,0.3,1.1,0,1.6,94.8,71,81.4,76170,53.9,-91.49277553,43.67146528
27157,Minnesota,Wabasha,21658,0.7,0.4,0.7,0.1,3.4,94,81.2,81.4,78953,53.2,-92.23023021,44.28428259
31003,Nebraska,Antelope,6293,0.4,0.7,0.5,0,4.1,94,100,81.4,63250,53.4,-98.06660249,42.17696571
31037,Nebraska,Colfax,10444,4.3,3.8,1.3,0.7,47,46.7,38.4,81.4,69549,55.4,-97.086359,41.57404386
36081,New York,Queens,2278029,17.8,1.4,27.9,0.2,28.2,23.9,0,81.4,80180,46.8,-73.81734511,40.70829859
48157,Texas,Fort Bend,889146,21.2,0.7,22.1,0.1,25.5,29.3,4.8,81.4,105583,43.5,-95.77093789,29.52747353
55011,Wisconsin,Buffalo,13391,0.6,0.5,0.5,0,2.9,94.8,100,81.4,63969,52.8,-91.75475095,44.38005523
06053,California,Monterey,432858,2.2,2.6,6.8,0.6,60.8,28.1,14.3,81.3,91450,43.6,-121.2387503,36.21711865
06111,California,Ventura,832605,1.8,1.9,8.2,0.3,44.5,43,3.4,81.3,101981,44.5,-119.0848457,34.45474678
13117,Georgia,Forsyth,267237,4.5,0.5,19.9,0.1,9.7,63.9,7.7,81.3,130909,46.9,-84.12468922,34.2256545
25021,Massachusetts,Norfolk,725531,7.9,0.3,13,0.1,5.7,71.2,2,81.3,115770,49.7,-71.20690516,42.1624614
30009,Montana,Carbon,11179,0.9,1.5,0.7,0.1,3.1,92.6,100,81.3,67062,49.9,-109.0283184,45.22736746
38057,North Dakota,Mercer,8333,0.6,2.8,0.8,0.1,2.6,91.8,100,81.3,90092,59.8,-101.8317306,47.30905996
45013,South Carolina,Beaufort,196371,16,0.4,1.5,0.1,11.2,69.4,18.6,81.3,83687,36.7,-80.73004378,32.3853684
47187,Tennessee,Williamson,260815,4,0.3,5.5,0.1,5.3,83.2,18.6,81.3,133486,42.4,-86.89830897,35.89405608
50007,Vermont,Chittenden,169301,2.6,0.3,4.9,0,2.7,87.2,26.1,81.3,86579,42.7,-73.08101275,44.46109238
55089,Wisconsin,Ozaukee,93009,1.9,0.3,2.7,0,3.6,90.1,24.3,81.3,97778,49.7,-87.95138777,43.38375913
06079,California,San Luis Obispo,282013,1.6,1.5,4.2,0.2,24.1,67.1,19.1,81.2,88578,45.1,-120.4042917,35.38707354
12071,Florida,Lee,822453,8.1,0.5,1.8,0.1,24.3,64.2,3.9,81.2,71607,39.1,-81.84068841,26.57801557
27149,Minnesota,Stevens,9637,1.3,1.7,1.7,0.1,9.3,84.1,48,81.2,69171,58.6,-96.00022786,45.58615985
37183,North Carolina,Wake,1175021,19.6,0.8,8.9,0.1,10.6,58.3,5.2,81.2,97099,38.4,-78.65050164,35.78982367
39041,Ohio,Delaware,226296,4.5,0.2,9,0.1,3.2,81.2,20.3,81.2,121528,40.9,-83.00450275,40.27841348
41017,Oregon,Deschutes,206549,0.5,1.1,1.4,0.2,8.8,85.8,29.2,81.2,84281,42.2,-121.227881,43.91469217
46117,South Dakota,Stanley,2999,1,7.2,0.4,0,2.8,86,30,81.2,81788,,-100.7360867,44.41245198
55025,Wisconsin,Dane,568203,5.5,0.5,6.6,0.1,7,78,13.6,81.2,85189,42.4,-89.41786325,43.06746565
06017,California,El Dorado,192646,0.9,1.4,5.6,0.2,14.1,75.3,36.7,81.1,104859,45.6,-120.5247066,38.77888901
06097,California,Sonoma,482650,1.7,2.3,5,0.4,28.9,60.6,13.6,81.1,96312,43.6,-122.8872965,38.52842052
08067,Colorado,La Plata,56607,0.6,7.7,0.9,0.1,13.1,78.3,65.6,81.1,79358,47.8,-107.843327,37.28655123
12109,Florida,St. Johns,306841,5.2,0.3,4,0.1,8.7,79.9,14.8,81.1,103757,39.3,-81.4405388,29.90168542
27037,Minnesota,Dakota,443341,8.5,0.7,5.7,0.1,8,74.7,5,81.1,97727,46.9,-93.06556878,44.67245057
31027,Nebraska,Cedar,8371,0.5,0.8,0.3,0,2.5,95.3,100,81.1,69033,63.2,-97.25275919,42.59931244
38023,North Dakota,Divide,2187,2,1.2,2.2,0.2,4.2,87.9,100,81.1,70513,,-103.4871163,48.81486205
39121,Ohio,Noble,14335,3.2,0.4,0.3,0,0.8,94.1,100,81.1,57054,49,-81.45612561,39.7660752
42029,Pennsylvania,Chester,545823,5.6,0.3,7.2,0.1,7.7,77.5,19.3,81.1,117326,46.1,-75.74843926,39.97329798
48211,Texas,Hemphill,3217,0.6,1.9,1.4,0.2,34.3,61.8,100,81.1,73212,,-100.2703577,35.83764858
51199,Virginia,York,71341,13.9,0.5,6.5,0.2,7.7,67.9,7.1,81.1,111346,42.4,-76.56191748,37.24271166
53017,Washington,Douglas,44192,0.6,2.5,1.4,0.3,34.3,60.9,25.4,81.1,83870,43.6,-119.6917069,47.73589576
56035,Wyoming,Sublette,8763,0.8,1.2,0.8,0.1,6.8,88.8,100,81.1,85649,,-109.9148412,42.76688453
06083,California,Santa Barbara,443837,1.7,2.2,6.1,0.3,47.5,42.3,5.6,81,89334,44.4,-120.0150919,34.67142103
08069,Colorado,Larimer,366778,1.1,1.2,2.5,0.1,12.7,80.9,10.2,81,88338,45.4,-105.4615545,40.6665145
12099,Florida,Palm Beach,1518477,18.8,0.6,3.1,0.1,24.2,52.3,0.8,81,76713,39.3,-80.46503899,26.64741122
18057,Indiana,Hamilton,364921,4.9,0.2,7.3,0.1,4.9,80.7,5.7,81,117068,43.2,-86.05184193,40.07229856
27089,Minnesota,Marshall,8861,0.7,1,0.4,0.1,5.2,92,100,81,70606,53.9,-96.3692954,48.35830232
30055,Montana,McCone,1709,0.6,1,0.4,0,1.8,94.1,100,81,59086,,-105.7952945,47.64515532
31139,Nebraska,Pierce,7332,0.5,0.6,0.4,0,2.8,94.9,100,81,70906,57.2,-97.60122773,42.26434853
36087,New York,Rockland,339022,10.8,0.6,6.4,0.1,19.4,62,0.4,81,99839,44.5,-74.02389861,41.15225744
41027,Oregon,Hood River,24048,0.5,1.3,1.7,0.2,31.1,63.4,51.8,81,75818,45.6,-121.6512892,45.51931999
48491,Texas,Williamson,671418,7.1,0.9,10.3,0.2,25.3,54.6,9.2,81,101891,43.5,-97.60120361,30.64812769
49029,Utah,Morgan,12832,0.3,0.4,0.6,0.2,3,94.5,100,81,119482,52.8,-111.5734451,41.08889094
50001,Vermont,Addison,37578,1.2,0.3,1.9,0,2.6,92.2,83.5,81,79526,44.3,-73.14089327,44.03090072
51153,Virginia,Prince William,486943,20.3,1.1,10.7,0.2,25.8,39.1,4.6,81,119051,42.8,-77.48028729,38.70276099
55015,Wisconsin,Calumet,52718,0.9,0.7,2.6,0.1,5,89.7,52.6,81,85589,53.6,-88.21780273,44.0816316
55029,Wisconsin,Door,30526,0.7,0.8,0.6,0,3.9,92.9,68.6,81,72296,51.1,-87.31112969,44.95030522
08007,Colorado,Archuleta,14003,0.6,3.8,1.1,0.2,18.4,76.4,57.8,80.9,66025,43.7,-107.0481757,37.19365584
08027,Colorado,Custer,5335,0.9,1.3,0.6,0,5.6,90.1,100,80.9,67766,,-105.3670379,38.10882281
20091,Kansas,Johnson,619195,5,0.4,5.5,0,8.5,78.3,4,80.9,99174,46.5,-94.82256945,38.88370015
36109,New York,Tompkins,104777,4,0.5,10.2,0.1,5.5,76.8,44.1,80.9,72025,43.3,-76.47381763,42.45222263
46033,South Dakota,Custer,9006,0.8,3.5,1.1,0.1,4.7,88.3,100,80.9,75336,46.1,-103.4514908,43.67736837
48121,Texas,Denton,977281,11.7,0.8,11.2,0.1,20.1,54.3,7.2,80.9,102711,44.9,-97.11685878,33.20528167
06073,California,San Diego,3276208,4.7,1.4,13.1,0.6,35,43.4,4.4,80.8,98365,44.3,-116.7353982,33.03386576
08047,Colorado,Gilpin,5891,1.3,1.6,1.7,0.3,7.8,85.2,100,80.8,89805,,-105.5221395,39.85721134
16003,Idaho,Adams,4817,0.2,1.8,0.9,0.4,5,89.5,100,80.8,56374,,-116.4539483,44.88931492
27039,Minnesota,Dodge,20981,0.7,0.5,0.8,0,5.3,91.1,63.3,80.8,88994,48.9,-92.86236786,44.02229546
27153,Minnesota,Todd,25538,0.5,0.8,0.5,0.3,8.4,88.8,99.4,80.8,66300,52.9,-94.89728962,46.07014445
30045,Montana,Judith Basin,2105,0.1,1.1,0.5,0,2.8,94.7,100,80.8,60677,,-110.2659877,47.04516111
38039,North Dakota,Griggs,2252,0.5,0.8,0.1,0,1.1,97.2,100,80.8,59332,,-98.23703207,47.4570984
46049,South Dakota,Faulk,2126,0.4,0.6,0.4,0,1.5,96.8,100,80.8,60853,,-99.14535601,45.07082625
53029,Washington,Island,86625,2.9,1,5.3,0.5,8.7,77.7,47.8,80.8,82717,45.3,-122.5493921,48.16376089
09013,Connecticut,Tolland,150293,3.6,0.3,5.2,0.1,6.6,82.7,50.3,80.7,86430,46.1,-72.33642171,41.85510643
12085,Florida,Martin,162006,5,1.1,1.6,0.2,14.7,77.1,7.3,80.7,80678,39.1,-80.43133534,27.07737178
17085,Illinois,Jo Daviess,21758,0.8,0.3,0.5,0.1,3.5,93.8,88.4,80.7,67217,50.3,-90.21246462,42.36542788
17097,Illinois,Lake,709150,7,0.9,9.3,0.1,23.5,58.4,1.4,80.7,101621,42.7,-88.00373142,42.32318039
19059,Iowa,Dickinson,18028,0.7,0.3,1.1,0.1,2.9,93.9,26.8,80.7,75406,51.3,-95.15099401,43.37782493
20183,Kansas,Smith,3533,0.4,0.8,0.5,0.1,3.1,93.3,100,80.7,52101,,-98.78566877,39.78517466
27075,Minnesota,Lake,10939,0.5,0.9,0.6,0,1.9,94.5,100,80.7,73724,46.8,-91.44445826,47.64037177
27103,Minnesota,Nicollet,34441,4.5,0.7,1.6,0,5.3,86.5,25.2,80.7,78091,49.9,-94.24751207,44.34987456
27173,Minnesota,Yellow Medicine,9486,0.7,3.9,0.7,0.1,5.7,87.8,100,80.7,67543,53.7,-95.86888348,44.71626059
29227,Missouri,Worth,1955,1,0.4,0.3,0,2.1,95.4,100,80.7,48397,,-94.42191277,40.47867651
36091,New York,Saratoga,238797,2,0.3,3,0.1,3.8,89.2,28.5,80.7,93341,45.5,-73.86394518,43.10743063
38077,North Dakota,Richland,16580,1.2,3.2,0.6,0.1,3.7,89.9,52.2,80.7,74253,56.2,-96.94827807,46.26461801
42119,Pennsylvania,Union,42744,5.3,0.5,1.8,0.1,5.8,85.5,63.2,80.7,65521,48.8,-77.06213019,40.9633376
46011,South Dakota,Brookings,35484,1.7,1.4,3.3,0.1,4.3,88,31.1,80.7,71166,52.5,-96.79064836,44.36981684
48259,Texas,Kendall,48973,1.3,0.8,1.7,0.1,26.1,69.1,56.8,80.7,120238,46.7,-98.7114161,29.94473189
49005,Utah,Cache,140173,0.9,1,2.3,0.6,11.3,82.9,14.4,80.7,76631,50.3,-111.743741,41.72255404
49053,Utah,Washington,197680,0.6,1.7,1.2,0.9,11.6,82.8,14.9,80.7,75572,45.8,-113.5045338,37.28047916
55049,Wisconsin,Iowa,23865,0.9,0.3,0.9,0.1,2.3,94.3,79.3,80.7,76404,53,-90.13523894,43.00020828
55133,Wisconsin,Waukesha,410434,1.9,0.3,4.2,0.1,5.4,86.7,15.2,80.7,99525,47.8,-88.30430125,43.01833546
06113,California,Yolo,222115,2.7,1.8,16,0.6,32.3,44,8,80.6,82359,44.3,-121.9015118,38.68648941
12043,Florida,Glades,12454,14.3,4.4,0.8,0.2,22.5,56.8,82.7,80.6,50559,,-81.1889838,26.95642237
12087,Florida,Monroe,81708,6.5,0.5,1.5,0.2,26.3,63.9,13.1,80.6,79459,43.7,-81.12021765,25.27277607
17093,Illinois,Kendall,137254,8.5,0.6,4,0.1,22.6,63,11.4,80.6,102509,49.2,-88.42879892,41.59088826
27169,Minnesota,Winona,49478,1.9,0.5,2.7,0,3.4,90.2,40.3,80.6,65699,50.9,-91.77934467,43.98683746
30001,Montana,Beaverhead,9719,0.3,2.2,0.6,0.6,5.7,88.6,52.7,80.6,57497,51.2,-112.899016,45.13261641
38047,North Dakota,Logan,1855,0.3,1,0.5,0,2.6,93.7,100,80.6,60695,,-99.47712748,46.45733694
44001,Rhode Island,Bristol,50360,1.3,0.3,2.8,0.1,3.7,90.1,1.1,80.6,101158,45,-71.28385194,41.71169465
48453,Texas,Travis,1326436,8.5,1.2,8.4,0.1,33,47.9,5.1,80.6,95151,38.7,-97.78169164,30.33471479
55091,Wisconsin,Pepin,7410,0.4,0.4,0.6,0,2.6,95.3,100,80.6,69535,58.9,-92.00178921,44.58302681
09007,Connecticut,Middlesex,164759,5.1,0.3,3.3,0.1,7.1,82.4,29.2,80.5,94735,44.7,-72.5354823,41.46358412
19105,Iowa,Jones,20848,2.6,0.5,0.6,0,2.4,93,73.8,80.5,70671,51.6,-91.13139641,42.12118609
20201,Kansas,Washington,5501,0.6,0.5,0.8,0.1,4.9,92.4,100,80.5,63797,56,-97.08751558,39.78417855
26139,Michigan,Ottawa,300873,1.7,0.5,2.9,0.1,10.5,82.9,21.2,80.5,85968,45.3,-85.9964531,42.95990607
27143,Minnesota,Sibley,14955,0.9,0.6,0.9,0.1,9.3,87.4,100,80.5,75596,55.5,-94.23165958,44.5793954
27145,Minnesota,Stearns,160405,9.5,0.5,2.3,0.1,4.1,81.9,38,80.5,72378,52.3,-94.61299658,45.55199481
27147,Minnesota,Steele,37398,3.6,0.6,1.1,0.1,8.6,85.1,29.7,80.5,75474,48.2,-93.22627088,44.02240351
29147,Missouri,Nodaway,20670,1.9,0.4,1.5,0,1.9,93.4,47.2,80.5,57507,51.5,-94.88335354,40.36098014
30057,Montana,Madison,9265,0.5,0.9,0.6,0.1,5.3,91,100,80.5,72487,,-111.9213142,45.30105558
33015,New Hampshire,Rockingham,319424,0.9,0.2,2.5,0.1,3.8,91.3,29,80.5,107445,45,-71.12556353,42.98749699
46059,South Dakota,Hand,3140,0.5,0.7,0.7,0.1,2,94.9,100,80.5,64536,,-99.00538393,44.54798838
46077,South Dakota,Kingsbury,5294,0.6,1.2,0.7,0,3.3,93.3,100,80.5,64215,58.8,-97.4913945,44.36956169
48319,Texas,Mason,3982,0.5,0.9,0.3,0.3,26.4,71.5,100,80.5,59129,,-99.22629725,30.7177995
55061,Wisconsin,Kewaunee,20623,0.5,0.8,0.6,0,3.5,93.6,100,80.5,73717,49.6,-87.61509441,44.51638089
02110,Alaska,Juneau,31685,1.3,12.5,7.3,1.3,7.5,63,23.2,80.4,"102,097",41.7,-134.1764399,58.45091866
06069,California,San Benito,67579,1.2,3.2,5.4,0.6,62.4,29.4,22.7,80.4,106560,43.8,-121.0752215,36.60559815
13307,Georgia,Webster,2328,41.2,0.7,0.7,0,6.5,49.7,100,80.4,45987,,-84.55001221,32.04630599
20089,Kansas,Jewell,2898,0.5,0.7,0.5,0,2.5,94.7,100,80.4,56144,,-98.21822331,39.7847206
25025,Massachusetts,Suffolk,766381,19.5,0.8,9.7,0.2,23.9,44.6,0,80.4,84548,39.8,-71.07033478,42.33340065
26161,Michigan,Washtenaw,366376,12.1,0.4,9.4,0.1,5.3,69.5,17.2,80.4,80941,38.9,-83.83879891,42.25344402
31167,Nebraska,Stanton,5717,0.8,0.9,0.3,0.1,7,89.9,73.3,80.4,75068,,-97.19394708,41.9169835
31177,Nebraska,Washington,21167,0.9,0.5,0.4,0.1,3.3,93.6,61.7,80.4,87368,53.3,-96.22188779,41.53110052
44009,Rhode Island,Washington,130330,1.3,0.9,2.2,0,3.8,90.2,33.6,80.4,99015,44,-71.62328128,41.46943509
46025,South Dakota,Clark,3912,1.7,1.1,0.3,0,4.6,91.7,100,80.4,62559,,-97.72949102,44.8584651
02275,Alaska,Wrangell,2070,0.6,17,3.5,0.1,4,62.9,100,80.3,67761,,-132.0310434,56.32537949
12115,Florida,Sarasota,462286,4.2,0.3,2.1,0.1,10.3,81.8,2.4,80.3,78309,40.2,-82.33141981,27.18432942
17089,Illinois,Kane,514182,5.3,1.1,4.7,0.1,33.1,55.6,4,80.3,93475,41.4,-88.42861217,41.93895003
23023,Maine,Sagadahoc,37393,1,0.4,1,0,2.1,94,61.4,80.3,73587,41.5,-69.85358192,43.95888365
25015,Massachusetts,Hampshire,162588,3,0.3,5.7,0.1,6.5,82.5,28.5,80.3,81878,45.4,-72.66378659,42.34022511
27003,Minnesota,Anoka,368864,9,0.9,6.1,0.1,5.5,76,15.9,80.3,92249,46.1,-93.24708307,45.27314304
27067,Minnesota,Kandiyohi,43839,6.1,0.5,1.5,0.2,13.8,77.2,43,80.3,72281,49.4,-95.00576302,45.15252304
27093,Minnesota,Meeker,23496,0.6,0.4,0.5,0.1,4.4,93.3,71.9,80.3,76506,52.1,-94.52871063,45.12332877
30007,Montana,Broadwater,7793,0.7,1.5,0.4,0.1,3.4,92.3,100,80.3,67927,,-111.4961534,46.33259261
33009,New Hampshire,Grafton,91126,1.2,0.4,4,0,2.7,90,65.7,80.3,81205,43.7,-71.82064764,43.94073661
34023,New Jersey,Middlesex,861418,10.4,0.8,26.1,0.1,23.2,38.9,1,80.3,102073,47,-74.41108832,40.43949114
36047,New York,Kings,2590516,29.1,1,13.2,0.1,18.9,36.7,0,80.3,73244,41.8,-73.93708255,40.63562226
38043,North Dakota,Kidder,2393,0.4,1.4,0.9,0,5.3,92,100,80.3,56951,,-99.78013842,46.98013909
53031,Washington,Jefferson,33589,1,1.9,2.1,0.3,4.5,87.5,53.3,80.3,69176,44.1,-123.5935915,47.7490129
53037,Washington,Kittitas,45189,1,1.4,2,0.3,10,82.9,42.8,80.3,71737,46.5,-120.679712,47.12448572
55093,Wisconsin,Pierce,42532,0.8,0.6,1.3,0,2.7,92.9,70,80.3,85508,53.8,-92.42212486,44.71909741
08045,Colorado,Garfield,62271,0.7,1.7,1,0.2,30.5,66,32.1,80.2,86566,49.3,-107.9036205,39.59941978
12086,Florida,Miami-Dade,2673837,14.7,0.3,1.7,0.1,69.1,13.8,0.9,80.2,66952,42,-80.55914415,25.61511557
15001,Hawaii,Hawaii,206315,0.8,0.6,20.2,12.8,13.9,30.3,59.5,80.2,71143,40.1,-155.5211676,19.60123507
19031,Iowa,Cedar,18399,0.8,0.3,0.7,0.1,2.6,94.3,100,80.2,71563,51.8,-91.13246684,41.77233777
19081,Iowa,Hancock,10685,0.7,0.4,0.6,0.1,5.7,91.8,100,80.2,67498,55.1,-93.73454884,43.08178477
22023,Louisiana,Cameron,4902,3.9,1,0.5,0.1,4.6,88.1,100,80.2,63413,46.2,-93.19458209,29.87556075
27073,Minnesota,Lac qui Parle,6689,0.6,0.6,0.9,0.3,3.1,93.6,100,80.2,67556,56.4,-96.1738058,44.99583443
31081,Nebraska,Hamilton,9429,0.4,0.4,0.4,0,4.3,93.4,100,80.2,75369,52.6,-98.02280046,40.87318318
31153,Nebraska,Sarpy,196553,4.2,0.9,2.8,0.1,11.3,78.4,5.2,80.2,98619,45.2,-96.11218009,41.11287068
41005,Oregon,Clackamas,423177,1.2,1.1,5.6,0.3,9.8,79.1,17.1,80.2,96915,43.2,-122.2205544,45.18820387
55119,Wisconsin,Taylor,19975,0.4,0.5,0.5,0.1,2.7,95.3,79.3,80.2,67544,50.9,-90.50164471,45.21158608
02220,Alaska,Sitka,8382,1,15.5,8.4,0.4,7.8,60.3,9.3,80.1,90345,38,-135.3151746,57.23393263
06037,California,Los Angeles,9721138,7.9,1.5,15.8,0.4,49,25.2,0.9,80.1,82455,43.3,-118.224703,34.32134579
20161,Kansas,Riley,71108,6.4,0.8,4.7,0.3,8.7,76.2,9.8,80.1,55876,43.8,-96.7350396,39.29629774
26037,Michigan,Clinton,79748,1.9,0.6,1.7,0.1,5,88.9,51.3,80.1,80212,45.7,-84.60138451,42.9439517
27171,Minnesota,Wright,148003,2.5,0.5,1.8,0,3.6,89.9,39.2,80.1,95259,47.8,-93.96334763,45.1738141
31011,Nebraska,Boone,5385,0.6,0.4,0.5,0,3.7,94.2,100,80.1,68533,61.3,-98.06703102,41.7067951
31099,Nebraska,Kearney,6690,0.3,0.6,0.3,0.1,8.3,89.9,100,80.1,74686,52.2,-98.94803186,40.50675437
33003,New Hampshire,Carroll,52199,0.6,0.4,0.8,0,1.7,95.3,89.5,80.1,71981,44.7,-71.20268868,43.87378859
42091,Pennsylvania,Montgomery,864683,9.7,0.3,8.6,0.1,6,73.5,3.3,80.1,106743,47,-75.36722689,40.21085251
48205,Texas,Hartley,5208,5.7,0.8,0.8,0,28.4,63.8,46.2,80.1,84165,,-102.6029352,35.84008345
48243,Texas,Jeff Davis,1903,0.7,2.2,1.9,0.3,32.1,61.5,100,80.1,58285,,-104.1401726,30.71489092
51075,Virginia,Goochland,26109,13.7,0.4,1.9,0,3.5,78.9,92.7,80.1,113617,41.4,-77.91594304,37.72200089
55065,Wisconsin,Lafayette,16877,0.5,0.8,0.5,0,4.6,93.2,100,80.1,67311,54.3,-90.13189524,42.66021077
55109,Wisconsin,St. Croix,96017,0.7,0.5,1.2,0,2.8,93.2,64,80.1,97589,50.1,-92.4529513,45.03345626
06057,California,Nevada,102293,0.6,1.3,1.7,0.2,10.4,83.6,48.2,80,80069,44.2,-120.7682923,39.30150048
12081,Florida,Manatee,429125,8.3,0.6,2.5,0.1,17.3,70,4.7,80,72176,37.5,-82.31571914,27.47189899
16001,Idaho,Ada,518907,1.3,0.8,3,0.2,9.5,83.1,5.6,80,87748,42.6,-116.241035,43.45084054
17111,Illinois,McHenry,311747,1.7,0.6,3.2,0.1,15.3,78.3,14.1,80,99128,46.7,-88.45263983,42.32444631
19017,Iowa,Bremer,25259,1.4,0.3,1.3,0,2.1,93.8,63.3,80,83797,55,-92.31795937,42.77461496
19021,Iowa,Buena Vista,20600,3.6,0.7,10.7,3,27.9,54,43,80,67552,52.3,-95.15100162,42.73545875
20045,Kansas,Douglas,119964,4.4,2.7,4.8,0.1,6.9,77.8,14.6,80,67482,40.6,-95.29263542,38.88451412
23015,Maine,Lincoln,36215,0.8,0.5,0.9,0,1.8,94.7,91.3,80,72657,42.1,-69.54198777,44.06333351
26093,Michigan,Livingston,196161,0.7,0.5,1,0.1,2.8,93.8,39.5,80,101227,42.4,-83.9117077,42.60389287
27057,Minnesota,Hubbard,21960,0.4,2.7,0.5,0.1,2.9,91.7,100,80,67797,46,-94.91640615,47.10785166
31019,Nebraska,Buffalo,50586,1.1,0.8,1.5,0.2,10.1,85.5,31.1,80,67809,51,-99.07510068,40.85504881
31077,Nebraska,Greeley,2227,0.9,0.2,0.2,0,3.1,95,100,80,58561,,-98.52144222,41.56747021
32005,Nevada,Douglas,49628,0.8,2.2,2.2,0.3,13.5,79.6,29.7,80,91960,43,-119.6162086,38.91213378
34017,New Jersey,Hudson,703366,11,1.3,17,0.2,42.4,28.2,0,80,82361,44.1,-74.07753388,40.73476975
38019,North Dakota,Cavalier,3597,0.5,2,0.6,0,2.6,92.8,100,80,73221,,-98.46469965,48.77240346
39055,Ohio,Geauga,95469,1.3,0.2,0.7,0,1.9,95,78.6,80,101636,46.3,-81.17872133,41.49972479
46127,South Dakota,Union,17063,1.3,1,1.6,0.2,4.8,89.8,57.9,80,85677,52.8,-96.65571268,42.83182818
53073,Washington,Whatcom,230677,1.1,3.3,5.1,0.3,10.5,77,28.6,80,78796,44.1,-121.7209525,48.82595321
55033,Wisconsin,Dunn,45651,0.8,0.6,3.2,0.1,2.3,91.8,62.5,80,71434,48.6,-91.89653391,44.94674851
02100,Alaska,Haines,2056,0.7,10.6,1.3,0,4.2,75.8,100,79.9,"70,610",,-135.5024208,59.11793896
13219,Georgia,Oconee,43588,4.7,0.3,4.7,0.1,5.9,83,54.1,79.9,114758,40.5,-83.43706988,33.83506881
20081,Kansas,Haskell,3576,0.3,1.8,0.9,0.3,32.2,64.7,100,79.9,69971,,-100.8710456,37.56200432
24021,Maryland,Frederick,287079,11.2,0.6,6.3,0.1,11.9,67.6,27.5,79.9,116796,45.6,-77.3978074,39.4720692
27045,Minnesota,Fillmore,21414,0.7,0.3,0.7,0,2,95.5,100,79.9,72065,55,-92.08990525,43.6739576
27053,Minnesota,Hennepin,1260121,14.2,1.1,7.7,0.1,7.2,67.2,2.4,79.9,89418,41.2,-93.47715121,45.00479678
36069,New York,Ontario,112707,2.5,0.4,1.5,0,5.5,88.7,44.9,79.9,76601,43.9,-77.29986178,42.85304122
37037,North Carolina,Chatham,79864,11,1.2,2.6,0.2,12.1,72.3,64,79.9,84516,38.7,-79.25545829,35.70266277
53039,Washington,Klickitat,23271,0.5,2.6,1.1,0.2,12.8,81.1,79.7,79.9,70371,40.6,-120.7895031,45.87361546
55131,Wisconsin,Washington,137688,1.6,0.4,1.8,0,3.6,91.4,38.4,79.9,90313,49.6,-88.23041319,43.36887792
17133,Illinois,Monroe,35033,0.5,0.2,0.6,0,1.8,95.9,41.5,79.8,100487,51.1,-90.17743157,38.27853951
19149,Iowa,Plymouth,25681,2.2,1,0.7,0.6,6.2,88.7,60.5,79.8,79431,57.3,-96.21424951,42.73735704
20051,Kansas,Ellis,28941,1.3,0.4,1.5,0.1,7,88.2,24.4,79.8,61675,53.1,-99.31751551,38.91458712
23005,Maine,Cumberland,307451,3.6,0.3,2.6,0,2.5,89.1,37.6,79.8,88571,42.9,-70.37661287,43.83897334
27091,Minnesota,Martin,19650,0.7,0.6,0.7,0.3,6,91,58.1,79.8,61721,52.5,-94.55099667,43.67430059
27131,Minnesota,Rice,67693,6.7,0.7,2.2,0.1,9.2,79.6,32.2,79.8,77962,47.4,-93.2965986,44.35432778
34025,New Jersey,Monmouth,644098,6.5,0.3,5.8,0.1,11.7,74.5,5.1,79.8,117699,45.1,-74.22051128,40.2606812
38103,North Dakota,Wells,3930,0.5,0.9,0.3,0.1,1.7,95.5,100,79.8,66294,,-99.66092922,47.58750012
46045,South Dakota,Edmunds,4065,0.3,1.2,0.6,0,2.4,95,100,79.8,72004,,-99.21540939,45.41847898
46081,South Dakota,Lawrence,27214,1,2.1,1.5,0.1,3.9,89.5,32.8,79.8,67606,49.6,-103.7921498,44.35866653
48171,Texas,Gillespie,27477,0.5,1.3,0.6,0.1,25,72.6,56.4,79.8,77013,47.8,-98.94676915,30.31824095
48209,Texas,Hays,269225,4.1,1.3,2.2,0.1,40.8,51,29.7,79.8,89074,40.7,-98.03105783,30.05810528
49019,Utah,Grand,9769,0.7,5,2.3,0.3,11.2,79.9,18,79.8,67218,46.1,-109.5698239,38.98190066
53043,Washington,Lincoln,11601,0.7,2.3,0.8,0.2,4.2,89.3,100,79.8,68318,48.4,-118.4186556,47.57605403
53061,Washington,Snohomish,840079,3.8,1.6,14.2,0.7,11.6,64.3,11.8,79.8,101440,44.2,-121.6977603,48.04772437
55097,Wisconsin,Portage,70718,0.9,0.5,3.3,0.1,3.9,90.2,36.6,79.8,71360,48.1,-89.50154548,44.47561378
56019,Wyoming,Johnson,8730,0.7,1.9,0.8,0.1,5.5,89.7,46.5,79.8,70067,56.3,-106.5849297,44.03996832
08005,Colorado,Arapahoe,655808,10.9,1.2,6.9,0.4,21,57.3,2.1,79.7,93525,44,-104.3385011,39.649919
12011,Florida,Broward,1947026,28.6,0.4,4,0.1,32.5,33,0,79.7,70834,40.3,-80.48723143,26.15220703
17027,Illinois,Clinton,36909,3.2,0.4,0.7,0.1,3.5,91,80.2,79.7,79612,52.3,-89.4229686,38.60632268
19011,Iowa,Benton,25711,0.7,0.4,0.6,0,1.9,95.3,81.3,79.7,82762,50.4,-92.06463573,42.08011739
19189,Iowa,Winnebago,10617,1.5,0.4,1.1,0,5.8,89.8,100,79.7,66776,49.8,-93.73407175,43.3775066
25009,Massachusetts,Essex,806765,3.7,1,4.1,0.2,23.9,66.9,5.2,79.7,92118,44,-70.9515844,42.67174524
25011,Massachusetts,Franklin,70894,1.4,0.5,1.8,0.2,4.9,89.4,54.9,79.7,69929,43.8,-72.59174125,42.58309231
27013,Minnesota,Blue Earth,69631,5,0.5,2.6,0.1,4.4,85.5,33.6,79.7,68279,49.4,-94.06697737,44.03450234
31051,Nebraska,Dixon,5464,0.6,1.7,0.5,0.2,15.3,81.9,100,79.7,61144,52.9,-96.86826909,42.49349461
35049,New Mexico,Santa Fe,155664,0.9,4.3,1.7,0.2,50.3,43.4,35,79.7,72836,40.5,-105.9759986,35.50670942
36027,New York,Dutchess,297545,10.7,0.6,3.8,0.1,14.5,68.6,31.7,79.7,90740,43,-73.74303603,41.76513375
37189,North Carolina,Watauga,55089,1.9,0.4,1.3,0,4.1,90.9,48.9,79.7,57888,43,-81.69605652,36.23087329
38009,North Dakota,Bottineau,6376,0.7,3.9,1,0,2.4,89.7,100,79.7,69351,62.2,-100.8333086,48.792102
41021,Oregon,Gilliam,2018,0.6,2.3,1,0.5,7.1,86.6,100,79.7,69038,,-120.210458,45.37780558
42109,Pennsylvania,Snyder,39652,1,0.2,0.7,0.1,2.6,94.6,70.3,79.7,62382,47.3,-77.06984318,40.76993359
49049,Utah,Utah,702434,0.7,0.9,2,1,13.1,80.2,4.2,79.7,95085,49.1,-111.670284,40.11980262
50015,Vermont,Lamoille,26090,1.1,0.4,0.7,0.1,2.1,94,100,79.7,65190,44.5,-72.641331,44.60594136
51065,Virginia,Fluvanna,28159,14.4,0.5,0.9,0.1,4.7,76.9,63.9,79.7,88162,40.1,-78.27765024,37.84216441
53007,Washington,Chelan,79926,0.5,2.1,1.4,0.3,29,66.8,33.6,79.7,81697,45.5,-120.6188281,47.86921949
01117,Alabama,Shelby,230115,14.3,0.4,2.4,0.1,6.1,75.5,24,79.6,"98,263",40.4,-86.66137476,33.26405258
04023,Arizona,Santa Cruz,48759,0.5,1.5,0.9,0.2,82.5,15.5,59.8,79.6,53467,43,-110.8466869,31.52598116
12015,Florida,Charlotte,202661,5.4,0.4,1.5,0.1,8.4,82.8,6.5,79.6,65040,41.9,-81.91185513,26.90579274
13057,Georgia,Cherokee,281278,7.6,0.6,2.6,0.1,11.5,76.2,18.3,79.6,99932,42.1,-84.47621286,34.24473392
13113,Georgia,Fayette,122030,26.6,0.5,5.3,0.1,8.3,57.4,18.1,79.6,109358,43.7,-84.49428463,33.41303536
13135,Georgia,Gwinnett,975353,29.4,0.8,13.8,0.1,22.3,32,0.5,79.6,83918,41.3,-84.02400746,33.9614268
19131,Iowa,Mitchell,10532,0.7,0.3,0.6,0,2,95.9,100,79.6,65132,56.7,-92.78887576,43.35639379
21185,Kentucky,Oldham,69431,4.1,0.4,1.8,0.1,4.3,87.7,25.2,79.6,116173,44.1,-85.44866529,38.39974783
27047,Minnesota,Freeborn,30718,1.4,0.6,4,0.3,11,81.8,41.8,79.6,65632,49.2,-93.3488462,43.67383179
27111,Minnesota,Otter Tail,60519,1.5,0.9,0.6,0.1,3.9,92,77.9,79.6,65076,50.5,-95.70748857,46.4090783
27113,Minnesota,Pennington,13845,1.1,2.1,1.1,0,4.7,89.1,36.4,79.6,76423,52.2,-96.03627453,48.0666771
29165,Missouri,Platte,110534,8.2,0.6,2.9,0.6,6.9,78.5,13.6,79.6,93925,43.8,-94.77380125,39.38073683
31109,Nebraska,Lancaster,324756,4.1,1,4.7,0.1,8.1,79.7,9.7,79.6,68358,42.4,-96.68776297,40.78416865
31159,Nebraska,Seward,17692,0.8,0.5,0.5,0,2.9,94.1,57.6,79.6,77778,52.9,-97.13966029,40.8724014
35003,New Mexico,Catron,3827,0.8,4.4,0.3,0,19.6,73.6,100,79.6,44247,,-108.4054839,33.91502948
36053,New York,Madison,67097,1.8,0.8,1,0,2.6,92.4,69.2,79.6,69851,44,-75.66993538,42.91279676
36103,New York,Suffolk,1525465,7.9,0.7,4.8,0.1,21.4,64.4,2,79.6,119253,47.2,-72.84423227,40.87024178
38015,North Dakota,Burleigh,99280,2.1,4.7,1,0.2,3.1,87.4,24.3,79.6,83111,52.3,-100.4687948,46.97733689
41053,Oregon,Polk,89614,0.9,2.7,2.3,0.5,15.7,75.7,20.4,79.6,77156,41.5,-123.4132525,44.90338514
42041,Pennsylvania,Cumberland,268579,4.8,0.3,5.9,0.1,5.1,81.9,20.9,79.6,81295,46.3,-77.26523042,40.16350914
48397,Texas,Rockwall,123208,9,0.9,3.7,0.1,20.9,63.9,13.7,79.6,124291,44.2,-96.40769484,32.89785884
50017,Vermont,Orange,29846,0.7,0.4,0.6,0,1.6,95.2,100,79.6,73057,45.2,-72.37674987,44.00552167
06011,California,Colusa,21914,1.1,2.9,1.7,0.6,61.7,32.6,42.7,79.5,72963,47.8,-122.2363987,39.17719198
08059,Colorado,Jefferson,576143,1.3,1.2,3.3,0.1,16,76.9,7.1,79.5,102413,45.4,-105.2504738,39.58646067
12117,Florida,Seminole,478772,12,0.5,5.5,0.1,23.8,56.4,3.2,79.5,80296,41.3,-81.23634611,28.71682625
13067,Georgia,Cobb,771952,28.2,0.5,5.9,0.1,13.8,49.6,0,79.5,96798,39.8,-84.57652963,33.94183776
16041,Idaho,Franklin,15189,0.4,1,0.3,0.1,7.1,90.4,100,79.5,71669,54.8,-111.8131009,42.18121994
18015,Indiana,Carroll,20555,0.8,0.5,0.3,0,5.1,92.6,94.6,79.5,64731,47.7,-86.5635188,40.58306044
24035,Maryland,Queen Anne's,51711,5.9,0.5,1.3,0.1,4.9,85.6,59,79.5,109436,44.3,-76.0237387,39.06631908
25001,Massachusetts,Barnstable,232457,3.4,0.7,1.7,0.1,3.7,88.9,2.8,79.5,89774,45,-70.2898624,41.7232979
26003,Michigan,Alger,8807,7.6,4.7,0.4,0,2.2,82.3,100,79.5,59390,45.7,-86.60408109,46.40902031
26009,Michigan,Antrim,24249,0.4,1.3,0.4,0.1,2.4,94.1,100,79.5,71945,40.5,-85.14135875,44.99904124
26111,Michigan,Midland,83674,1.3,0.5,2.3,0.1,3.4,90.9,43.2,79.5,77595,41.3,-84.38804837,43.64674881
27063,Minnesota,Jackson,9893,1,0.6,1.9,0.2,4.6,90.5,100,79.5,66694,54.8,-95.15400031,43.67418723
27079,Minnesota,Le Sueur,29153,0.9,0.5,0.8,0.1,6.8,90,85.8,79.5,86864,53.5,-93.72984216,44.37144158
27085,Minnesota,McLeod,36714,0.8,0.6,0.8,0.1,7.4,89.5,44.5,79.5,80874,51.4,-94.27237288,44.82372142
27161,Minnesota,Waseca,18893,2,0.7,0.9,0.1,7,88,51.4,79.5,71519,50.9,-93.58720505,44.0220714
29087,Missouri,Holt,4262,0.6,1.3,0.3,0,1.5,94.9,100,79.5,51295,49.1,-95.21504754,40.0944922
36021,New York,Columbia,61286,4.4,0.4,2.3,0.1,5.9,85.2,82.8,79.5,83533,42,-73.63186276,42.25016297
37175,North Carolina,Transylvania,33355,3.1,0.5,0.7,0.1,3.5,90.1,60.4,79.5,62173,39.5,-82.79867801,35.20208661
39137,Ohio,Putnam,34334,0.5,0.4,0.3,0,6.8,91.5,84.2,79.5,81780,51.1,-84.13168547,41.02216769
42103,Pennsylvania,Pike,60558,5.8,0.5,1.7,0,12.6,78.2,87.2,79.5,81886,44.8,-75.03337176,41.33189163
46013,South Dakota,Brown,37972,1.7,3.8,3.4,0.3,4.1,85.1,26.9,79.5,71731,51.4,-98.35163367,45.58993475
49011,Utah,Davis,369948,1.2,0.8,2.3,0.9,11.1,81.8,0.8,79.5,103143,47.9,-112.1116607,40.99072955
51061,Virginia,Fauquier,74664,7.2,0.6,1.9,0.1,11.4,76.5,57.5,79.5,120301,42,-77.80950815,38.7387071
53035,Washington,Kitsap,277673,2.9,1.7,5.7,1,9.1,74.6,17.6,79.5,93794,42.7,-122.6734022,47.61342417
55007,Wisconsin,Bayfield,16608,0.5,9.8,0.5,0,2.5,84.9,100,79.5,63680,43.6,-91.20077484,46.52418284
04021,Arizona,Pinal,464154,5.3,6.2,2.1,0.4,31.7,54.6,23,79.4,76232,36.1,-111.34488,32.90415087
06095,California,Solano,448747,13.2,1.3,17.4,1.1,29.1,34.4,4.5,79.4,92711,42.8,-121.9331593,38.27025048
08119,Colorado,Teller,24857,1,1.5,1.1,0.2,8.7,85.8,60.1,79.4,81466,45.6,-105.1619203,38.88227296
16065,Idaho,Madison,54976,0.9,0.6,1.6,0.4,8.8,85.9,21.9,79.4,52224,51.6,-111.6592182,43.78411982
17079,Illinois,Jasper,9212,0.3,0.3,0.4,0,1.9,96.2,100,79.4,66290,53,-88.15377894,39.01061641
19019,Iowa,Buchanan,20714,0.8,0.2,0.6,0,1.9,95.5,67.1,79.4,70498,52.8,-91.83745828,42.47108244
19043,Iowa,Clayton,17027,0.8,0.3,0.3,0.1,2.4,95.3,99.1,79.4,64486,55.3,-91.34106377,42.84452651
19077,Iowa,Guthrie,10647,0.9,0.5,0.4,0.1,3,94.1,100,79.4,72701,51,-94.50111014,41.68378965
20149,Kansas,Pottawatomie,26273,1.3,1,1,0.1,5.8,89,65.5,79.4,85822,50.9,-96.34276557,39.37903349
20195,Kansas,Trego,2752,0.5,0.4,0.5,0,3.1,93.8,100,79.4,54628,,-99.87284448,38.91467218
26125,Michigan,Oakland,1269431,13.7,0.3,8.6,0,4.8,70.4,5.5,79.4,90801,40.9,-83.38594391,42.66090645
27015,Minnesota,Brown,25723,0.6,0.3,0.7,0,5.2,92.4,48.2,79.4,64093,56.8,-94.727558,44.24201356
27083,Minnesota,Lyon,25262,3.1,1,5.3,0.1,8.3,81.6,46.5,79.4,70958,53.9,-95.83918761,44.41338502
27105,Minnesota,Nobles,21947,4.7,1.5,7.1,0.3,31.7,55.1,38.1,79.4,65374,53.1,-95.75326093,43.67428858
27117,Minnesota,Pipestone,9355,1.3,2.1,1,0,7.7,86.8,100,79.4,65499,57.4,-96.258643,44.02300689
27141,Minnesota,Sherburne,100824,4.5,0.6,1.7,0.1,3.3,87.9,50.9,79.4,97999,48,-93.77496918,45.44403172
31141,Nebraska,Platte,34296,1.1,2,1.1,0.2,22.8,74.1,27.6,79.4,67132,54.3,-97.52073009,41.57115154
33013,New Hampshire,Merrimack,156020,1.8,0.3,2.4,0,2.6,91.4,54.6,79.4,84898,43.2,-71.68059329,43.2975734
34039,New Jersey,Union,569815,20.8,1,6.2,0.1,34,37.6,0,79.4,96483,43.8,-74.30721513,40.65928966
36051,New York,Livingston,61516,1.8,0.5,1.3,0.1,4.1,90.9,71.4,79.4,75077,45.6,-77.77517835,42.72855751
37063,North Carolina,Durham,332680,34,1,6,0.1,13.9,43.6,5.1,79.4,79524,33.6,-78.87606872,36.03605321
38063,North Dakota,Nelson,2995,0.8,2.7,0.4,0,4.1,90.9,100,79.4,59947,,-98.19212605,47.92171706
41023,Oregon,Grant,7218,0.3,2,0.7,0.1,4.3,90.4,100,79.4,58348,49.7,-119.0074917,44.4907455
41055,Oregon,Sherman,1955,0.3,2.6,0.9,0.1,6.4,88.4,100,79.4,71460,,-120.6892687,45.4052255
41063,Oregon,Wallowa,7659,0.4,1.1,0.6,0.2,4.2,91.7,100,79.4,61648,47.7,-117.1810198,45.57979758
42001,Pennsylvania,Adams,106027,1.7,0.4,0.9,0.1,7.4,88.3,63.3,79.4,76554,48.6,-77.21807609,39.87146641
46089,South Dakota,McPherson,2395,0.6,0.5,0.4,0.1,2,95.2,100,79.4,52850,,-99.221197,45.7662597
51121,Virginia,Montgomery,98915,4.1,0.3,6.6,0.1,3.7,83,26.1,79.4,69668,40.2,-80.38642559,37.17483569
51149,Virginia,Prince George,43134,31.1,0.9,2.1,0.5,9.9,52.9,49.1,79.4,76571,40.9,-77.22446275,37.18648609
51179,Virginia,Stafford,163380,20.5,0.9,4.2,0.2,16.3,54.4,18.6,79.4,134456,44.2,-77.45796206,38.4206167
53021,Washington,Franklin,98678,1.8,1.8,2.6,0.4,54.8,38.7,11.4,79.4,77820,43.6,-118.8984754,46.5350455
56001,Wyoming,Albany,38031,1.3,1.2,3.6,0.1,10,82.2,13,79.4,53537,48.5,-105.7236684,41.65453797
02195,Alaska,Petersburg,3360,1.9,10.9,6.5,0.9,7.4,65,100,79.3,"76,641",,-132.9333517,57.11988808
08123,Colorado,Weld,350176,1.4,1.7,2.1,0.2,31,63.4,20,79.3,90770,44.3,-104.3930144,40.55487277
12095,Florida,Orange,1452726,20.1,0.6,5.9,0.2,33.4,38.6,2.3,79.3,72129,38.5,-81.32311592,28.51429239
19061,Iowa,Dubuque,98677,3.6,0.3,1.3,0.8,3,89.4,31.7,79.3,73492,52.7,-90.88262627,42.46858503
20131,Kansas,Nemaha,10115,0.8,0.9,0.3,0.1,2.4,94.4,100,79.3,72719,63.8,-96.01393095,39.78343169
27025,Minnesota,Chisago,57988,1.5,0.9,2.1,0,2.8,91.4,65.7,79.3,98183,48.4,-92.90829767,45.5024111
27041,Minnesota,Douglas,39668,0.8,0.5,0.7,0.1,2.1,95,51.4,79.3,73521,52.9,-95.45422901,45.93372693
27127,Minnesota,Redwood,15361,0.9,5.3,2.7,0.1,4.3,85.6,70.1,79.3,66582,56.6,-95.25398841,44.40365018
29183,Missouri,St. Charles,413803,5.8,0.2,3.1,0.1,3.8,85,5.7,79.3,98925,44.3,-90.67411979,38.78248212
31089,Nebraska,Holt,10043,0.5,0.9,0.6,0.1,5.6,92.4,100,79.3,60502,57.7,-98.78376243,42.45557846
33005,New Hampshire,Cheshire,77350,0.8,0.3,1.7,0.1,2.4,93.2,69.1,79.3,76227,42.2,-72.25111371,42.91955278
36095,New York,Schoharie,30063,1.5,0.4,0.8,0,4.1,92,83,79.3,67975,45.4,-74.44200509,42.58814833
39103,Ohio,Medina,183512,1.6,0.2,1.4,0,2.7,92.7,34.1,79.3,89108,44.8,-81.8998621,41.11770589
42017,Pennsylvania,Bucks,645054,4.2,0.3,5.7,0.1,6.3,81.9,10.3,79.3,105202,47.2,-75.10684724,40.33694355
42071,Pennsylvania,Lancaster,556629,3.7,0.5,2.8,0.1,11.6,80.2,27.9,79.3,82434,44.7,-76.24786695,40.04261494
42095,Pennsylvania,Northampton,318526,6,0.5,3.3,0.1,15.6,73.2,16.9,79.3,75468,45,-75.30735363,40.75446063
48421,Texas,Sherman,2799,1.2,1.8,1,0,46,50.9,100,79.3,73395,,-101.8933684,36.27765456
53067,Washington,Thurston,298758,3.6,1.8,6.6,1.1,10.5,71.9,21.3,79.3,88560,42.2,-122.8330654,46.92672896
55121,Wisconsin,Trempealeau,30899,0.4,1.5,0.8,0.1,9.6,88.1,100,79.3,68184,50.9,-91.35874906,44.30390193
17007,Illinois,Boone,53154,2.5,0.9,1.5,0.1,24.9,69.7,29.4,79.2,83695,42.9,-88.82348512,42.32294195
17155,Illinois,Putnam,5572,0.6,0.4,0.6,0,6.6,91.1,100,79.2,83029,42.6,-89.28578933,41.2041567
19113,Iowa,Linn,229033,6.6,0.3,2.6,0.2,3.8,83.8,13.7,79.2,74134,45.4,-91.59809485,42.07923082
27165,Minnesota,Watonwan,11075,0.7,1.4,1.3,0.1,28.1,69.2,100,79.2,61295,49.7,-94.61413846,43.97823903
31041,Nebraska,Custer,10476,0.8,0.9,0.3,0,3.8,93.3,100,79.2,60328,54.6,-99.72614484,41.39416503
31131,Nebraska,Otoe,16198,1,1,0.8,0.1,8.9,87.4,55.9,79.2,70433,49.9,-96.1350641,40.64856103
31163,Nebraska,Sherman,2980,0.7,0.6,0.7,0,3,94.1,100,79.2,58456,,-98.97588642,41.22045983
36041,New York,Hamilton,5118,1.2,0.3,0.8,0.1,2.1,94.1,100,79.2,62149,,-74.49745908,43.66134129
36071,New York,Orange,405941,11.4,1,3.3,0.1,23.7,59.5,27.6,79.2,88532,42.3,-74.30558896,41.40198158
36085,New York,Richmond,491133,9.2,0.7,13.7,0.1,18.8,56.6,0,79.2,91582,46.5,-74.15390987,40.58183643
36111,New York,Ulster,182319,6,0.5,2.3,0.1,11.6,77.5,56.1,79.2,79340,42.6,-74.25878826,41.888126
37119,North Carolina,Mecklenburg,1145392,31.6,0.9,6.7,0.1,14.4,44.9,0.8,79.2,80645,35,-80.83268027,35.24675454
38011,North Dakota,Bowman,2894,0.4,2.8,0.1,0.1,5.5,91.4,100,79.2,75386,,-103.5205091,46.1127569
38017,North Dakota,Cass,192734,6.8,1.6,3.2,0.1,3.2,83.2,9.1,79.2,70002,49.9,-97.24822334,46.93292237
48041,Texas,Brazos,242014,10.7,0.7,5.8,0.1,26.8,54.8,11.9,79.2,60355,41.1,-96.30208322,30.66074221
51810,Virginia,Virginia Beach City,455618,19.1,0.5,7.8,0.2,9,59.9,1.8,79.2,83066,40.7,-76.04367462,36.73349545
53069,Washington,Wahkiakum,4688,0.5,1.9,1.7,0.5,6.6,85.7,100,79.2,70099,,-123.4247601,46.292422
55045,Wisconsin,Green,36816,0.7,0.4,0.7,0.1,3.7,93.6,71.1,79.2,79337,48,-89.60216504,42.67994609
56045,Wyoming,Weston,6860,0.8,2.1,1.5,0,5.5,88.6,100,79.2,67677,52.6,-104.5674037,43.84031497
16049,Idaho,Idaho,17593,0.6,2.8,0.6,0.1,3.9,89.9,100,79.1,60907,48.5,-115.4671964,45.84388002
17019,Illinois,Champaign,206542,14.1,0.4,11,0.1,6.8,65,16,79.1,61205,40.5,-88.19947606,40.13984863
19055,Iowa,Delaware,17568,0.9,0.2,0.4,0,1.7,96.1,71.9,79.1,74017,56.3,-91.36741055,42.4713865
20197,Kansas,Wabaunsee,7019,0.9,1.1,0.5,0,5.1,89.9,100,79.1,68435,48.2,-96.20480435,38.95324678
24047,Maryland,Worcester,53866,12.2,0.4,1.7,0,3.9,80.1,41,79.1,75969,39.2,-75.33389427,38.212837
26047,Michigan,Emmet,34163,0.8,3.7,0.6,0.1,2.3,90.6,63.1,79.1,69805,43.4,-84.89116957,45.51996676
26055,Michigan,Grand Traverse,96464,0.8,1.3,0.9,0.1,3.3,92.2,43.2,79.1,74746,42.4,-85.56013503,44.66916098
27081,Minnesota,Lincoln,5580,0.4,0.5,0.8,0.1,2.5,94.6,100,79.1,64860,58.4,-96.26720134,44.4123209
31039,Nebraska,Cuming,8929,0.4,0.8,0.6,0,10.4,87.1,100,79.1,65809,56.9,-96.78730772,41.91637624
31059,Nebraska,Fillmore,5553,0.5,0.8,0.6,0,4.1,93.6,100,79.1,68532,56.8,-97.59646937,40.52458567
38069,North Dakota,Pierce,3942,0.7,5,1.3,0,2,89.7,100,79.1,59007,,-99.97174953,48.24958064
46055,South Dakota,Haakon,1826,0.3,3,0.4,0.2,2.6,90.4,100,79.1,58799,,-101.5397482,44.29463659
50023,Vermont,Washington,60048,0.9,0.3,0.9,0,2.1,93.8,66.5,79.1,77432,45.6,-72.61502314,44.27309445
53057,Washington,Skagit,131179,0.8,2.7,2.6,0.4,19.9,72.4,34.1,79.1,79118,44.2,-121.7319234,48.47967845
55063,Wisconsin,La Crosse,120294,1.6,0.5,4.9,0,2.4,88.6,18.1,79.1,70075,45.3,-91.11543876,43.9066398
55073,Wisconsin,Marathon,137958,0.9,0.6,6.3,0.1,3.2,87.4,43.4,79.1,70955,49.9,-89.75863384,44.89792533
55103,Wisconsin,Richland,17090,0.8,0.6,1,0.1,3,93.7,71.5,79.1,67086,44.4,-90.42949677,43.37567167
08125,Colorado,Yuma,9899,0.5,1.2,0.6,0.3,27.6,69.9,100,79,56075,54.3,-102.4246098,40.00284508
09005,Connecticut,Litchfield,185000,2,0.4,2.2,0.1,8.1,86.1,45.5,79,84689,44.3,-73.24526767,41.79242134
12061,Florida,Indian River,167352,8.6,0.5,1.8,0.1,13.7,74.1,7.2,79,69462,38.9,-80.60559316,27.69396994
13073,Georgia,Columbia,162419,19.7,0.5,4.6,0.2,7.7,64.6,14.9,79,94224,39.6,-82.26371951,33.54404762
16015,Idaho,Boise,8333,0.7,1.3,1.5,0.2,6.5,87.6,100,79,74121,,-115.730321,43.98909247
17113,Illinois,McLean,171141,8.8,0.4,5.2,0.1,5.6,77.8,21.6,79,71825,42.7,-88.84769482,40.49061752
18129,Indiana,Posey,25063,1.1,0.3,0.6,0,1.4,95.4,70.4,79,75907,44.6,-87.86874523,38.02193911
19009,Iowa,Audubon,5598,0.8,0.5,0.7,0,2.9,94.6,100,79,60504,55.6,-94.90581859,41.6844628
19195,Iowa,Worth,7319,0.9,0.4,0.7,0,3.5,93.5,100,79,71329,47.4,-93.26085274,43.37747964
20027,Kansas,Clay,8043,1.2,0.8,0.5,0,3.8,91.8,49.1,79,59021,50.3,-97.16512523,39.34944765
25023,Massachusetts,Plymouth,533069,11.7,0.3,1.8,0.1,4.7,79.7,12.5,79,102647,44.6,-70.81296132,41.95331777
25027,Massachusetts,Worcester,862927,5.3,0.4,5.7,0.1,13.1,73.8,21.2,79,86078,43.9,-71.90780992,42.35111931
27035,Minnesota,Crow Wing,67948,0.8,1,0.5,0,1.7,94.3,68.7,79,67373,46,-94.07070376,46.48265818
27099,Minnesota,Mower,40140,4.1,0.7,6,0.8,13.2,74.1,36.3,79,68718,49.1,-92.75235164,43.67138759
31107,Nebraska,Knox,8336,0.4,10.7,0.5,0.1,3.7,84,100,79,54880,58.9,-97.89176183,42.63684531
31185,Nebraska,York,14354,1.7,1,0.7,0,5.5,90,43.6,79,68440,53.7,-97.59710186,40.87272618
32017,Nevada,Lincoln,4482,2.2,2.5,0.8,0.6,9.1,82,100,79,63978,,-114.8771351,37.64342469
36107,New York,Tioga,47772,1.1,0.3,0.8,0,2.2,94.3,66.4,79,76197,41.6,-76.3061895,42.17034639
38025,North Dakota,Dunn,4015,1.6,9.8,1.7,0,6.7,78.5,100,79,82490,,-102.6182871,47.35663619
38051,North Dakota,McIntosh,2475,0.9,1.1,0.9,0,3.2,93,100,79,57614,,-99.4414601,46.11180534
38081,North Dakota,Sargent,3795,2.3,1.5,1,0.2,3.5,90.3,100,79,75325,,-97.63059676,46.1078458
38089,North Dakota,Stark,32803,2.8,2,1.7,0.1,6.6,85.7,23.7,79,86963,63.6,-102.6550438,46.81078851
40025,Oklahoma,Cimarron,2252,0.7,1.3,0.5,0,24.2,70.9,100,79,50900,,-102.5178111,36.74826632
40059,Oklahoma,Harper,3129,0.3,3.4,0.3,0.2,25.7,69.5,100,79,65228,,-99.66696611,36.78871253
46093,South Dakota,Meade,30698,1.9,3.3,1.5,0.1,4.8,86.2,33.3,79,71106,47.5,-102.7166458,44.56667531
48175,Texas,Goliad,7131,4.1,1.3,0.7,0,35.4,58,100,79,62841,47.2,-97.42628751,28.65724851
48417,Texas,Shackelford,3186,1.7,1.1,0.6,0.1,12.9,82.4,100,79,64690,,-99.35401337,32.73587756
50027,Vermont,Windsor,58142,0.9,0.3,1.2,0,2.2,93.7,78.6,79,74244,44.8,-72.58619896,43.57967872
51165,Virginia,Rockingham,85397,2.5,0.6,1.2,0.1,8.5,86.1,59.3,79,72921,44.6,-78.87581609,38.51221007
55009,Wisconsin,Brown,270036,2.9,3.5,3.7,0.1,9.9,78.9,16.6,79,72398,46.2,-88.00366602,44.452501
55087,Wisconsin,Outagamie,192127,1.6,1.9,3.9,0.1,5,86,25.4,79,78808,48.2,-88.46565023,44.41578887
08103,Colorado,Rio Blanco,6569,1.4,1.8,0.7,0.2,12,82.6,100,78.9,71630,56.7,-108.2172628,39.97993245
13089,Georgia,DeKalb,762820,53.3,0.5,6.6,0.1,8.6,29.3,0.2,78.9,76736,34.6,-84.22665212,33.77122192
19101,Iowa,Jefferson,15698,2.4,0.5,7.9,0.1,3.8,83.5,41.2,78.9,59603,49.3,-91.94862204,41.03165465
19121,Iowa,Madison,17036,0.5,0.4,0.8,0,2.5,94.6,69.3,78.9,80887,48.9,-94.01554631,41.33081904
23031,Maine,York,216732,1.3,0.3,1.5,0,2.2,93.1,52,78.9,81315,44.7,-70.7143165,43.47829059
24003,Maryland,Anne Arundel,593286,18.9,0.5,4.6,0.1,9.4,63.8,7.5,78.9,112525,40.8,-76.60335105,39.0057724
24041,Maryland,Talbot,37932,12.2,0.5,1.5,0.3,7.9,76.5,51.9,78.9,76583,39.8,-76.10341962,38.77026257
27027,Minnesota,Clay,65929,5.2,1.9,1.4,0.1,5.1,84.3,25.8,78.9,79357,48.1,-96.49066248,46.89214202
27077,Minnesota,Lake of the Woods,3871,0.8,1.5,1.7,0,2.2,91.7,100,78.9,62143,,-94.90489792,48.77043756
30063,Montana,Missoula,121041,0.5,2.7,2,0.1,3.9,88.4,25.3,78.9,68210,44,-113.9237814,47.03651185
33011,New Hampshire,Hillsborough,426594,2.8,0.3,4.8,0.1,8.3,82,24.4,78.9,96415,44.2,-71.71602867,42.9153307
34005,New Jersey,Burlington,466103,17.4,0.4,6,0.1,9.6,64.3,9.8,78.9,100188,44,-74.6680045,39.87782133
34041,New Jersey,Warren,110926,6.2,0.5,3.2,0.1,12.4,76.7,43.2,78.9,97729,47.1,-74.99647914,40.85746195
37179,North Carolina,Union,249070,11.9,0.7,4.7,0.1,12.4,68.8,27.6,78.9,95079,38.6,-80.53061478,34.98836835
38075,North Dakota,Renville,2220,0.5,1.2,0.3,0.1,2.8,93.6,100,78.9,71271,,-101.6577138,48.71910481
39159,Ohio,Union,66898,2.7,0.2,6,0,2.9,86.4,45,78.9,104512,42.4,-83.37130174,40.29926661
46043,South Dakota,Douglas,2776,0.5,2.4,0.1,0,2.2,93.3,100,78.9,73934,,-98.36606932,43.38705519
46105,South Dakota,Perkins,2804,0.5,2.6,0.6,0.1,2.2,92.8,100,78.9,57148,,-102.4744037,45.49024355
53071,Washington,Walla Walla,61890,1.7,1.5,1.9,0.4,23.4,69.7,20.3,78.9,66542,43.5,-118.4785331,46.22968278
53075,Washington,Whitman,47619,2.3,1,8.2,0.3,7,77.6,31.9,78.9,54412,50.4,-117.5229774,46.90119074
55035,Wisconsin,Eau Claire,106837,1.1,0.6,4.4,0.2,2.9,89,23.7,78.9,70564,46.1,-91.28609183,44.726614
02122,Alaska,Kenai Peninsula,60690,0.8,8.4,1.9,0.3,4.6,78.8,77.4,78.8,"76,254",47.3,-151.5611779,60.2537748
06005,California,Amador,41412,2.7,2.2,2,0.4,16,75.3,69.2,78.8,74356,44.2,-120.651296,38.44638702
09003,Connecticut,Hartford,896854,13.7,0.6,6.3,0.1,19.4,58.6,5.8,78.8,79958,41.6,-72.73301048,41.80669859
12119,Florida,Sumter,144970,6.6,0.4,1.2,0.1,6.5,84.5,21.6,78.8,77851,37.6,-82.08128977,28.70520781
17197,Illinois,Will,696757,12.2,0.5,6.7,0.1,19.5,59.9,4.9,78.8,97076,42.4,-87.97829555,41.44485087
17203,Illinois,Woodford,38128,0.8,0.3,0.8,0,2,94.8,70.2,78.8,85892,48.3,-89.21080819,40.78829846
18063,Indiana,Hendricks,182534,10.5,0.3,3.6,0.1,5,78.7,15.2,78.8,94760,45.3,-86.50994544,39.76986908
19047,Iowa,Crawford,16123,3.2,1.9,2.7,0.4,30.6,62.4,50.7,78.8,67363,55,-95.3819718,42.03718237
19075,Iowa,Grundy,12356,0.6,0.2,0.4,0.1,2,95.3,100,78.8,79386,54.8,-92.7914653,42.40195716
19183,Iowa,Washington,22571,1,0.4,0.7,0.1,7.6,89.3,69.7,78.8,70539,47,-91.71758189,41.33548743
27059,Minnesota,Isanti,42727,1.1,0.9,1.8,0.1,2.6,91.6,59.3,78.8,83212,49.5,-93.29470209,45.56125565
38097,North Dakota,Traill,7958,1,1.5,0.6,0.1,4.2,90.6,100,78.8,79065,55,-97.16169937,47.45400419
41071,Oregon,Yamhill,108226,1,2,2,0.3,17.3,75.5,26.5,78.8,77969,41.6,-123.3078799,45.23269019
46115,South Dakota,Spink,6235,0.7,2.1,0.2,0,3.4,93.4,100,78.8,61513,57.9,-98.34623659,44.93824835
46135,South Dakota,Yankton,23373,1.7,3.1,0.8,0,5.6,87.8,31.3,78.8,62951,52.7,-97.39494039,43.00895493
48043,Texas,Brewster,9343,1.4,2.4,2.5,0.2,45.5,46.2,34.2,78.8,52388,48.7,-103.2522656,29.81174561
49035,Utah,Salt Lake,1186257,1.9,1.4,4.8,1.9,19.7,68.9,0.7,78.8,91713,45.7,-111.9241028,40.66728813
51177,Virginia,Spotsylvania,146688,17.6,0.5,3.1,0.2,12.7,62.9,32,78.8,96322,42.6,-77.65615344,38.18453467
53005,Washington,Benton,212791,1.4,1.5,3.5,0.3,24.9,66.8,12.1,78.8,85144,45.2,-119.5113335,46.23976031
53011,Washington,Clark,516779,2.3,1.3,5.6,1.1,11.4,75,13.5,78.8,91149,41.9,-122.4823115,45.77919832
55013,Wisconsin,Burnett,17036,0.8,4.6,0.5,0.1,2.2,90.2,100,78.8,57438,45.5,-92.36769812,45.86286431
55017,Wisconsin,Chippewa,66807,1.6,0.7,1.5,0.1,2,93,62.5,78.8,74425,48.6,-91.28017125,45.06921882
56027,Wyoming,Niobrara,2380,1,1.7,0.6,0,5.2,89.3,100,78.8,54573,,-104.4755961,43.05616954
08085,Colorado,Montrose,43811,0.5,1.8,0.9,0.2,21.2,75.1,42.6,78.7,65736,45.1,-108.2688129,38.4024194
12111,Florida,St. Lucie,358704,21.3,0.6,2.1,0.1,21.9,52.6,3.5,78.7,64038,37.6,-80.47111892,27.377528
17129,Illinois,Menard,12121,1,0.3,0.4,0,1.7,95.1,100,78.7,78115,46.8,-89.80172848,40.02711636
17189,Illinois,Washington,13643,1,0.2,0.5,0,1.6,95.6,99.3,78.7,71958,50.6,-89.41050166,38.35241923
19165,Iowa,Shelby,11645,0.8,0.7,0.6,0.1,3.5,93.1,59.9,78.7,71628,52.9,-95.31015553,41.6850066
19181,Iowa,Warren,54327,1,0.3,0.9,0.1,3.7,92.8,47.1,78.7,90943,50.1,-93.56121354,41.33431116
20063,Kansas,Gove,2717,0.6,0.2,1,0,3.9,93.6,100,78.7,64037,,-100.4829436,38.91587321
26081,Michigan,Kent,659083,9.9,0.7,3.5,0.1,11.3,72.3,16.2,78.7,76923,38.6,-85.54918115,43.03204611
27043,Minnesota,Faribault,13926,0.9,0.8,0.5,0,8.2,88.7,100,78.7,67302,50.4,-93.94781493,43.67387282
27049,Minnesota,Goodhue,48013,1.5,1.4,0.8,0.1,3.8,91.1,66.9,78.7,82091,51.6,-92.72266089,44.40972913
27051,Minnesota,Grant,6136,0.8,0.7,0.4,0.1,2.8,93.6,100,78.7,68381,56.9,-96.01216405,45.93402352
27121,Minnesota,Pope,11431,0.4,0.6,0.7,0,2.1,95.2,62.8,78.7,68888,56.2,-95.44454861,45.58611957
29019,Missouri,Boone,187690,9.8,0.5,5.1,0.1,3.8,77.6,22.8,78.7,63981,39.9,-92.30983436,38.99091068
31083,Nebraska,Harlan,3054,0.5,0.6,0.6,0,2.4,95.3,100,78.7,62104,,-99.40436605,40.17656663
34021,New Jersey,Mercer,380688,19.3,0.7,13,0.3,20.4,45.2,5.1,78.7,94832,39.4,-74.70164497,40.28339139
36001,New York,Albany,315811,13,0.3,7.4,0.1,6.9,69.8,9.6,78.7,76997,42.3,-73.97341306,42.59987237
36019,New York,Clinton,78753,3.2,0.5,1.4,0,2.9,90.5,63.7,78.7,65272,44.2,-73.67828248,44.74606721
38035,North Dakota,Grand Forks,72413,4,3.1,2.9,0.1,5.1,82.7,19.2,78.7,64914,49.3,-97.45708074,47.92166578
41013,Oregon,Crook,26375,0.4,1.7,0.7,0.1,8.4,86.9,49.8,78.7,69563,43.6,-120.3567062,44.14229491
46029,South Dakota,Codington,28721,0.7,3.3,0.8,0,3.8,90.6,27.1,78.7,65009,51.1,-97.18860384,44.97790512
46067,South Dakota,Hutchinson,7368,1,1.8,0.4,0.1,2.6,93.4,100,78.7,64422,60.2,-97.75456287,43.33466314
48031,Texas,Blanco,12418,1.2,1.4,1,0.1,19.7,75.9,100,78.7,82236,48.3,-98.3999852,30.26640707
51069,Virginia,Frederick,95051,4.5,0.7,2.3,0.1,11.4,79.4,39.4,78.7,97091,42.6,-78.26241473,39.2045848
51145,Virginia,Powhatan,31489,8.4,0.4,0.7,0.1,2.7,86.3,98.1,78.7,105231,42.3,-77.915315,37.55029696
51540,Virginia,Charlottesville City,45373,16.7,0.4,7.4,0.1,6.1,66.5,0,78.7,67903,34.5,-78.48233004,38.03742163
55023,Wisconsin,Crawford,16007,1.9,0.4,0.6,0,1.9,94,63,78.7,63862,50.3,-90.93068567,43.23966087
55055,Wisconsin,Jefferson,85784,1.1,0.5,1,0,7.7,88.6,44.5,78.7,78728,46.5,-88.77532763,43.02053192
02090,Alaska,Fairbanks North Star,95356,4.8,8.3,3.4,0.6,8.6,68.3,25.4,78.6,"84,166",45,-146.5623662,64.8083752
04027,Arizona,Yuma,207842,1.7,2.4,1.5,0.3,66.1,28.8,15.1,78.6,54209,44,-113.9058099,32.76933672
06009,California,Calaveras,46563,0.8,2.1,2.2,0.3,14.9,77.5,82,78.6,73175,42.8,-120.554132,38.20478056
08109,Colorado,Saguache,6623,1.1,3.8,1.1,0,34.8,59.4,100,78.6,45048,45.3,-106.2809773,38.08034572
09011,Connecticut,New London,268805,5.7,1.3,4.3,0.2,12,74.1,29.7,78.6,78552,42.8,-72.10232387,41.48708483
13183,Georgia,Long,18348,27.1,0.9,1.2,0.5,12.7,54.4,80.2,78.6,71285,,-81.7454462,31.75246506
18087,Indiana,LaGrange,40866,0.5,0.3,0.4,0,4.5,93.8,100,78.6,81010,49,-85.42669106,41.64234778
19027,Iowa,Carroll,20567,1.2,0.3,0.6,0,3.3,93.7,51.1,78.6,73643,59.8,-94.86032705,42.03617207
20065,Kansas,Graham,2411,3.4,1,1.7,0.1,4.6,87.1,100,78.6,53233,,-99.88334471,39.34986711
23013,Maine,Knox,41164,0.8,0.5,0.7,0,1.9,94.6,64.2,78.6,65615,40.8,-69.15278458,44.12441708
24009,Maryland,Calvert,94573,13.7,0.5,2,0.2,5.2,75.4,61.9,78.6,118110,43.5,-76.56882392,38.5437742
27071,Minnesota,Koochiching,11844,0.8,2.7,0.7,0,1.5,92.3,45.5,78.6,63035,49,-93.78362729,48.24510754
27097,Minnesota,Morrison,34246,0.7,0.4,0.4,0.1,1.8,95.5,72.3,78.6,64588,50.1,-94.26690418,46.01207437
27151,Minnesota,Swift,9755,0.9,0.7,0.9,1.1,6.5,88.3,100,78.6,67166,54.1,-95.68142474,45.28288933
29003,Missouri,Andrew,18003,1.3,0.4,0.7,0.1,2.9,93,60.4,78.6,72630,46.2,-94.80140498,39.98335111
30067,Montana,Park,17790,0.4,1.3,0.5,0.1,3.6,92.6,45.6,78.6,68594,45.2,-110.5249953,45.48913245
30081,Montana,Ravalli,47298,0.4,1.2,0.8,0.1,4.3,91.5,84.4,78.6,65789,47.7,-114.120145,46.08166896
31071,Nebraska,Garfield,1801,0.3,0.1,0.1,0.1,1.6,97,100,78.6,51530,,-98.99111827,41.91428955
31119,Nebraska,Madison,35368,1.2,2.3,1.8,0.1,16.4,78,27.4,78.6,63482,50.8,-97.60078361,41.9166434
31135,Nebraska,Perkins,2829,0.5,0.6,0.2,0.1,5.5,92.6,100,78.6,67296,,-101.6502998,40.85082266
31143,Nebraska,Polk,5166,0.3,0.9,0.3,0.1,6.6,90.9,100,78.6,70813,,-97.56825226,41.18687055
31151,Nebraska,Saline,14116,1,1.6,2.9,0.5,28,66.6,51.3,78.6,72948,55,-97.14080062,40.52415215
34031,New Jersey,Passaic,513936,9.7,1.7,6.1,0.2,44.3,38.8,2.8,78.6,78779,42.3,-74.30115633,41.03446344
36055,New York,Monroe,752035,14.8,0.4,3.9,0.1,9.9,68.9,8.1,78.6,68169,39.3,-77.69595887,43.14694904
36121,New York,Wyoming,39666,4.2,0.5,0.5,0.1,3.4,90.5,90,78.6,65526,47.5,-78.2237766,42.70226414
49017,Utah,Garfield,5281,0.5,3,1.3,0.4,7.6,85.3,100,78.6,66786,51.9,-111.4425093,37.85511631
49021,Utah,Iron,62429,0.6,2.5,1.1,0.4,10.4,84.1,28.6,78.6,66499,46,-113.2894426,37.85935379
50025,Vermont,Windham,45842,1.5,0.3,1.3,0.1,2.7,92.3,70.9,78.6,61976,44.3,-72.71377523,42.99053464
51015,Virginia,Augusta,78064,4.7,0.3,0.7,0,3.9,89,84.3,78.6,77487,42.9,-79.13408568,38.16483645
51079,Virginia,Greene,21107,7.2,0.5,2.4,0.1,7.4,79.9,100,78.6,82772,39.1,-78.46704277,38.29731238
51091,Virginia,Highland,2301,1,0.3,0.8,0,1.5,96,100,78.6,54470,,-79.56866954,38.36239367
51660,Virginia,Harrisonburg City,51158,8,0.9,4.5,0.3,21.2,63.7,0.6,78.6,56057,42.4,-78.87397667,38.43833151
54061,West Virginia,Monongalia,106869,3.6,0.2,3.7,0.1,2.5,87.7,26.7,78.6,59094,43.2,-80.04558938,39.63024065
55039,Wisconsin,Fond du Lac,103836,2.2,0.6,1.8,0.1,6.1,88,36.3,78.6,71206,48.3,-88.48885325,43.75354908
55051,Wisconsin,Iron,6224,0.3,1.7,0.4,0,1.7,94.4,67.2,78.6,60694,,-90.24265966,46.26247657
55123,Wisconsin,Vernon,31060,0.4,0.4,0.5,0,1.8,95.9,86.8,78.6,67812,49.5,-90.83463661,43.59402052
56029,Wyoming,Park,30518,0.6,1,0.8,0.1,6.3,90.1,44.4,78.6,69802,52.4,-109.5885953,44.52053528
56033,Wyoming,Sheridan,32096,0.6,1.4,0.8,0.1,5.2,91,37.2,78.6,70224,50.9,-106.8799546,44.79068012
05007,Arkansas,Benton,302863,2,1.9,4.8,0.8,18,70.7,24,78.5,86374,44,-94.25598718,36.33873798
06043,California,Mariposa,17020,1.2,3.7,1.8,0.2,14.8,76.6,100,78.5,66513,45.1,-119.9053183,37.58143472
06065,California,Riverside,2473902,6.3,2,7.8,0.5,52,31.3,5.5,78.5,86350,41.8,-115.9939021,33.74329781
09009,Connecticut,New Haven,863700,13.4,0.7,4.4,0.1,20.2,60,5.2,78.5,75094,41.9,-72.93235204,41.41072833
16017,Idaho,Bonner,51414,0.3,1,0.8,0.1,4.2,91.5,72.8,78.5,64860,45.7,-116.6009928,48.2996896
16055,Idaho,Kootenai,183578,0.4,1.3,1,0.2,5.7,89.3,23.5,78.5,75583,44.8,-116.7000308,47.6744641
17041,Illinois,Douglas,19755,0.8,0.5,0.7,0,8,88.9,75,78.5,67796,48.8,-88.21756136,39.7695478
17131,Illinois,Mercer,15504,0.8,0.2,0.6,0,3.2,94.1,100,78.5,70430,50.8,-90.74108384,41.20543704
17147,Illinois,Piatt,16723,0.9,0.2,0.6,0,1.6,95.2,64.1,78.5,85430,46.6,-88.59111102,40.01024723
18105,Indiana,Monroe,139745,3.7,0.3,6.9,0.1,4.1,82.5,21.2,78.5,64299,38.3,-86.52334305,39.16100464
19037,Iowa,Chickasaw,11716,0.6,0.2,0.4,0,3.1,95,100,78.5,74077,57,-92.31766909,43.06009652
19157,Iowa,Poweshiek,18467,1.5,0.4,1.9,0.1,3.9,90.9,49.2,78.5,69566,50.8,-92.53097077,41.68657418
20181,Kansas,Sherman,5830,0.9,0.7,0.6,0.2,13.3,82.5,25.1,78.5,57044,49.2,-101.7197684,39.35147377
29047,Missouri,Clay,257033,7.7,0.7,2.6,0.5,7.7,78.4,8.1,78.5,78930,43.6,-94.42122576,39.31045251
29151,Missouri,Osage,13399,0.4,0.5,0.2,0.1,1.1,96.9,100,78.5,69094,54.2,-91.86178101,38.46015852
31155,Nebraska,Saunders,23118,0.6,0.5,0.5,0,2.6,94.6,78.5,78.5,86179,51.3,-96.63733984,41.22629371
31175,Nebraska,Valley,4073,0.3,0.5,0.5,0,3.9,94.1,100,78.5,55050,,-98.98208511,41.56723462
32033,Nevada,White Pine,8788,3.7,5.3,1.2,0.2,17.5,70.7,50.9,78.5,67639,48.1,-114.9015438,39.44238145
36031,New York,Essex,36910,1.7,0.6,0.8,0.1,3,92.8,86.5,78.5,62376,45.9,-73.77248171,44.11702035
36049,New York,Lewis,26699,0.7,0.3,0.5,0.1,1.6,95.8,100,78.5,64452,50.2,-75.44886742,43.78465035
37055,North Carolina,Dare,37956,2.4,0.7,1,0.1,7.7,86.9,22.1,78.5,82052,39.7,-75.78245555,35.7632084
41051,Oregon,Multnomah,795083,5.8,1.5,8.3,0.7,12.9,67.5,1.3,78.5,79432,39.1,-122.4157429,45.54693681
48229,Texas,Hudspeth,3432,4.3,1.5,2.2,0.1,79.3,13.1,100,78.5,39582,,-105.3871487,31.4564022
51161,Virginia,Roanoke,96914,6.7,0.3,3.7,0,3.9,83.6,19.4,78.5,77010,43.7,-80.067514,37.26938285
55083,Wisconsin,Oconto,39633,0.4,1.7,0.5,0,2.2,94.2,100,78.5,68127,47.2,-88.26895246,45.02616558
06067,California,Sacramento,1584169,9.7,1.6,18.3,1.3,24.5,41.4,2.4,78.4,83985,41.6,-121.3445212,38.44881725
08073,Colorado,Lincoln,5510,4.9,1.9,1.4,0.5,15.4,75.2,100,78.4,54345,,-103.5137335,38.98742236
13145,Georgia,Harris,36276,15.9,0.6,1.4,0.2,5.1,75,97.2,78.4,90636,38.1,-84.9082899,32.73613817
16071,Idaho,Oneida,4712,0.5,0.6,0.6,0.1,4.6,92.6,100,78.4,66175,,-112.5395749,42.19490877
17033,Illinois,Crawford,18536,4.6,0.4,0.6,0.1,2.7,90.6,67.2,78.4,66333,43.7,-87.75932466,39.00382453
19003,Iowa,Adams,3611,0.8,0.6,0.8,0.1,2.2,94.4,100,78.4,58973,,-94.69932645,41.02903567
19051,Iowa,Davis,9130,0.2,0.5,0.4,0,2,96.1,100,78.4,65201,51.1,-92.41006563,40.74775139
19125,Iowa,Marion,33642,0.9,0.3,1.4,0.1,2.4,93.8,47,78.4,73451,50.5,-93.09934783,41.33445101
19161,Iowa,Sac,9673,0.5,0.2,0.6,0.6,4.3,93.1,100,78.4,72499,57.2,-95.10547892,42.38624071
26029,Michigan,Charlevoix,26293,0.6,1.7,0.7,0.1,2.6,92.9,69.8,78.4,71362,41.6,-85.12921505,45.30562797
27123,Minnesota,Ramsey,536413,13.1,1,15.9,0.1,7.8,59.4,0,78.4,75041,41.9,-93.09987304,45.01747232
30049,Montana,Lewis and Clark,73832,0.5,2.1,0.9,0.1,3.9,90.5,26.2,78.4,72491,44.7,-112.3904537,47.12259745
30075,Montana,Powder River,1725,0.2,2.1,0.2,0,3,92,100,78.4,54102,,-105.6300238,45.39499878
31025,Nebraska,Cass,27122,0.8,0.9,0.6,0.1,4.3,92.1,75,78.4,93195,49.5,-96.14069252,40.90976087
33019,New Hampshire,Sullivan,43958,0.9,0.4,1.2,0,2.1,93.8,78.1,78.4,74700,41.8,-72.22243767,43.36150987
34037,New Jersey,Sussex,146084,2.6,0.3,2.3,0.1,11.6,82,48.6,78.4,111308,47.8,-74.69082533,41.13935722
36011,New York,Cayuga,74998,3.6,0.5,0.7,0.1,3.3,89.7,58.8,78.4,64129,43.3,-76.55468471,42.91811235
39165,Ohio,Warren,249778,3.7,0.2,7.3,0.1,3.4,83.5,17.5,78.4,104523,43.4,-84.16728624,39.42735056
41047,Oregon,Marion,346703,1.2,2.8,2.7,1.2,28.7,62.7,15.4,78.4,70861,40.9,-122.5849114,44.90322354
42077,Pennsylvania,Lehigh,376317,6.1,1.2,4.1,0.2,28.7,59.5,9.9,78.4,72590,43.9,-75.59214444,40.61280627
48187,Texas,Guadalupe,182760,7.9,1.1,2.1,0.3,39.8,47.7,24.8,78.4,86043,41.3,-97.9484645,29.58321407
48339,Texas,Montgomery,678490,6.6,1,3.6,0.1,27.1,60.7,22.9,78.4,95241,44.5,-95.50331613,30.30019889
49025,Utah,Kane,8227,0.7,1.8,0.9,0.1,5.6,89.1,100,78.4,66609,47.4,-111.8879757,37.28527775
50011,Vermont,Franklin,50731,0.8,1,1,0,2,92.9,77.2,78.4,76395,44,-72.9120833,44.85745972
50013,Vermont,Grand Isle,7489,0.9,1.4,0.7,0.1,2.3,92,100,78.4,76260,,-73.29488547,44.79689986
51157,Virginia,Rappahannock,7502,3.9,0.5,1.2,0.1,5,87.4,100,78.4,85575,44.8,-78.15943614,38.68461794
51735,Virginia,Poquoson City,12582,1.7,0.6,2.1,0.1,3.8,89.8,8.9,78.4,109549,51,-76.35566972,37.1307115
55021,Wisconsin,Columbia,58193,1.7,0.8,0.9,0.1,4.1,91.4,66.2,78.4,78767,47.5,-89.33408259,43.4669904
55071,Wisconsin,Manitowoc,81172,1.2,0.8,2.9,0.1,5.1,88.8,42.8,78.4,62910,48.2,-87.80948518,44.11990639
55139,Wisconsin,Winnebago,170718,2.7,0.8,3.4,0.1,4.7,86.7,17.4,78.4,69887,44.5,-88.64477096,44.06886922
56023,Wyoming,Lincoln,20660,0.6,1.1,0.5,0.1,5.4,91.3,100,78.4,93044,52.7,-110.656067,42.26409375
02130,Alaska,Ketchikan Gateway,13741,1,14.3,8.6,0.4,5.8,62.1,14.1,78.3,"82,648",43.8,-130.9369511,55.58672276
16021,Idaho,Boundary,13345,0.7,2,1.6,0.1,5.5,88.5,100,78.3,62801,46.2,-116.4627525,48.766998
16035,Idaho,Clearwater,9015,0.6,2.6,0.8,0.2,4.6,89.2,100,78.3,57081,46.7,-115.656021,46.67349275
18157,Indiana,Tippecanoe,188717,6.1,0.4,8.3,0.1,9.3,73.9,15.7,78.3,56088,42.4,-86.89407624,40.38871167
19023,Iowa,Butler,14269,0.4,0.2,1.2,0.1,1.9,95.4,100,78.3,67233,56,-92.79015971,42.73172833
19067,Iowa,Floyd,15337,2.5,0.4,1.6,0.1,4.2,90,53.6,78.3,64553,53.4,-92.78940097,43.0600053
19091,Iowa,Humboldt,9572,0.9,0.4,0.6,0,5.5,91.5,44.4,78.3,71521,55.2,-94.20722537,42.7764426
19109,Iowa,Kossuth,14475,0.9,0.6,0.6,0.1,4.2,92.9,63.3,78.3,65510,58.5,-94.20689787,43.20413984
20187,Kansas,Stanton,1963,0.8,2.4,0.4,0.2,40.5,53.8,100,78.3,76137,,-101.7842716,37.56304856
21015,Kentucky,Boone,139093,4.8,0.3,2.6,0.2,4.9,85.3,11.5,78.3,90265,41.9,-84.72794553,38.96984373
23009,Maine,Hancock,56701,1.1,0.5,1.3,0,1.8,93.9,100,78.3,63879,42.2,-68.35862848,44.64373173
24013,Maryland,Carroll,175305,4.1,0.3,2.5,0.1,4.6,86.5,42.2,78.3,105096,47.5,-77.02256972,39.56320174
31023,Nebraska,Butler,8427,0.8,0.8,0.3,0,5.8,91.4,100,78.3,76417,55.1,-97.13156172,41.22599383
36077,New York,Otsego,60636,2.5,0.3,1.7,0.1,4.5,89.7,72.7,78.3,68962,45.4,-75.03243898,42.63374775
36083,New York,Rensselaer,159853,7.7,0.4,3.1,0.1,5.7,81.1,33.1,78.3,80040,42.8,-73.50952678,42.71103722
38029,North Dakota,Emmons,3250,0.5,1.1,0.7,0,1.5,94.5,100,78.3,60952,,-100.2386194,46.28495441
38099,North Dakota,Walsh,10438,0.7,2.4,1,0.1,12.6,82.6,100,78.3,67249,56.4,-97.72134503,48.36930301
40083,Oklahoma,Logan,51933,7,3.8,0.7,0.1,8.1,76.3,62,78.3,76331,43.7,-97.44308101,35.91913897
41009,Oregon,Columbia,53588,0.7,1.6,1.2,0.3,6.8,86.4,41.2,78.3,77572,42.4,-123.0888664,45.94376691
44003,Rhode Island,Kent,171275,2.4,0.6,3.2,0.1,7.2,85,7.2,78.3,84230,44.7,-71.59305645,41.6720081
48091,Texas,Comal,184642,2.8,0.9,1.7,0.2,29.3,64.3,46.6,78.3,92979,44.1,-98.2785174,29.80840142
50009,Vermont,Essex,5994,0.7,0.6,0.8,0,1.8,94.3,100,78.3,54570,46.5,-71.736327,44.7283185
51023,Virginia,Botetourt,34135,3.1,0.4,1,0,2.2,91.9,59.4,78.3,81122,45.1,-79.8119662,37.5570231
51085,Virginia,Hanover,112938,9.3,0.5,2.3,0.1,3.6,82.3,37,78.3,103639,44.9,-77.49131526,37.76033617
53065,Washington,Stevens,48229,0.6,5.5,0.8,0.2,4.4,86,89.1,78.3,65748,43,-117.8550713,48.39899156
54017,West Virginia,Doddridge,7698,2.9,0.5,0.5,0,0.8,94.1,100,78.3,47755,,-80.70721363,39.26936104
55099,Wisconsin,Price,14179,0.6,0.9,0.7,1,2.3,93.5,100,78.3,53883,50.3,-90.36154528,45.68054246
55117,Wisconsin,Sheboygan,117841,2.3,0.6,6.2,0.1,7.2,82.1,29.4,78.3,65008,46.3,-87.94566398,43.72108736
04013,Arizona,Maricopa,4551524,5.9,2.9,4.9,0.3,32.1,53,2.3,78.2,83668,40.7,-112.4908888,33.34875974
13059,Georgia,Clarke,129875,26.9,0.5,4,0.2,11.4,55.6,5.9,78.2,49832,32.8,-83.36755873,33.95097841
17009,Illinois,Brown,6330,17.4,1.2,0.4,0.1,7.2,73.8,100,78.2,78081,,-90.75018804,39.96180493
18121,Indiana,Parke,16369,2,0.5,0.2,0,1.7,94.5,99.4,78.2,64700,44.1,-87.20678147,39.77360728
19089,Iowa,Howard,9533,0.8,0.4,0.5,0.1,2,95.5,100,78.2,66979,58.4,-92.31710205,43.35677003
19099,Iowa,Jasper,37938,2.3,0.5,0.6,0.1,3,92.5,57.8,78.2,69047,48.9,-93.05376026,41.6860352
20087,Kansas,Jefferson,18344,0.8,1,0.4,0.1,3.5,92.3,99.1,78.2,75774,49.6,-95.38360115,39.23530705
26141,Michigan,Presque Isle,13361,0.6,1,0.6,0,1.8,94.8,100,78.2,56375,46.7,-83.91721501,45.34035915
27001,Minnesota,Aitkin,16126,0.5,2.4,0.3,0,1.5,93.8,100,78.2,59064,48.1,-93.4156134,46.60787445
30073,Montana,Pondera,6078,0.6,15.4,0.5,0.1,2.8,79.1,100,78.2,51057,50.4,-112.2266404,48.22793502
31029,Nebraska,Chase,3772,0.5,0.7,0.6,0,15.6,82.4,100,78.2,64985,,-101.6979407,40.52371008
38067,North Dakota,Pembina,6763,0.8,2.6,0.5,0,4,89.8,100,78.2,69141,55.6,-97.55156514,48.76726978
39075,Ohio,Holmes,44390,0.4,0.1,0.3,0.1,1,97.5,100,78.2,75226,46.6,-81.93067102,40.5614819
40003,Oklahoma,Alfalfa,5637,5.6,4.5,0.5,0.1,7.3,79.9,100,78.2,58045,,-98.32176345,36.73091839
44007,Rhode Island,Providence,657288,9,1.6,4.4,0.3,25.5,58.4,5.2,78.2,74190,42.3,-71.58004041,41.8721229
46035,South Dakota,Davison,19973,0.9,3.4,0.9,0.1,4.3,89.1,21.4,78.2,63753,51.1,-98.14543668,43.67475843
48295,Texas,Lipscomb,2854,1.1,2.5,1.1,0.2,36.7,57.6,100,78.2,70236,,-100.2732972,36.27778375
51099,Virginia,King George,27856,15.7,0.9,1.9,0.1,7.1,71.5,100,78.2,100092,41.1,-77.15723124,38.27358126
55111,Wisconsin,Sauk,65777,1.2,1.4,0.7,0,6.2,89.7,44.7,78.2,70484,46.3,-89.94819801,43.42667177
55127,Wisconsin,Walworth,105380,1,0.5,1.1,0.1,11.5,85,36.9,78.2,73723,45.3,-88.54158045,42.66848551
55137,Wisconsin,Waushara,24999,2,0.9,0.6,0.1,6.6,89,99.6,78.2,55982,46.4,-89.24316913,44.11328215
56011,Wyoming,Crook,7448,0.9,1.2,0.3,0.1,3.5,93,100,78.2,70196,61.7,-104.5703226,44.58843934
02150,Alaska,Kodiak Island,12720,1.2,12.4,24.3,0.8,8.9,47.3,27.3,78.1,"83,222",45.7,-153.7750279,57.66653702
08031,Colorado,Denver,713252,9,1.8,4.2,0.2,28.8,54.9,0,78.1,87619,37.6,-104.8760248,39.76129114
12027,Florida,DeSoto,35312,11.4,1.1,0.7,0.2,32.1,54.4,49,78.1,47097,37,-81.80959835,27.18691656
12097,Florida,Osceola,422545,10.5,0.9,3.1,0.3,56.8,28,6.3,78.1,63782,40.2,-81.14924253,28.06245875
13121,Georgia,Fulton,1074634,44,0.3,8.1,0,7.4,38.3,0.6,78.1,89798,33.1,-84.46714878,33.79038574
13291,Georgia,Union,26388,1,0.5,0.5,0,4,92.9,100,78.1,64588,41.5,-83.99038243,34.83375049
18037,Indiana,Dubois,43632,0.8,0.4,0.7,0.2,9.1,88.6,47.6,78.1,71171,52.7,-86.87970258,38.36427783
18151,Indiana,Steuben,34725,0.9,0.4,0.8,0,4.3,92.6,63.2,78.1,73250,41.5,-85.00106921,41.64408329
19025,Iowa,Calhoun,9725,2.7,0.6,0.4,0,2.4,92.8,100,78.1,64634,54.4,-94.64046046,42.38521079
19041,Iowa,Clay,16475,1.1,0.4,0.9,0,4.4,92.1,33.1,78.1,68542,49.7,-95.15096481,43.08247182
19095,Iowa,Iowa,16475,0.6,0.3,0.6,0.1,3.8,93.8,100,78.1,72948,54.7,-92.06369553,41.68621637
19197,Iowa,Wright,12681,0.9,0.7,0.6,0.4,14.8,82.2,100,78.1,67291,49.8,-93.73515113,42.73305373
24025,Maryland,Harford,263867,15.3,0.4,3.2,0.1,5.3,73.2,20.9,78.1,100334,43.5,-76.31717004,39.56126248
26015,Michigan,Barry,63554,0.7,0.6,0.6,0,3.7,92.7,87.1,78.1,71173,42.1,-85.30834519,42.59513984
26109,Michigan,Menominee,23266,0.7,3.1,0.5,0,2.4,91.9,63.2,78.1,50564,48.4,-87.55660994,45.58036988
27129,Minnesota,Renville,14525,0.7,1.7,0.9,0,10.2,85.8,100,78.1,66568,55.7,-94.94679511,44.72672673
28073,Mississippi,Lamar,65783,22.1,0.4,1.4,0.1,3.2,71.7,53.7,78.1,62326,43.2,-89.50870961,31.20573333
30095,Montana,Stillwater,9177,0.3,1.4,0.7,0.1,4.6,91.4,100,78.1,81147,52.6,-109.394534,45.66951507
31055,Nebraska,Douglas,586327,11,1.4,4.5,0.1,13.9,67.6,2.4,78.1,74424,40,-96.15494428,41.29533784
31137,Nebraska,Phelps,8988,0.4,1,0.5,0,6.7,90.8,39.2,78.1,66287,50.8,-99.41426701,40.51115428
34029,New Jersey,Ocean,655735,3.3,0.3,2.1,0.1,10.2,83.3,3.7,78.1,81152,45.6,-74.28147189,39.88494891
36039,New York,Greene,48061,4.9,0.5,1.4,0,6.8,84.7,73.2,78.1,71433,45.2,-74.12279549,42.27638026
36043,New York,Herkimer,59822,1.4,0.4,0.7,0,2.8,93.4,52.6,78.1,62197,45,-74.96255405,43.41936241
36067,New York,Onondaga,468249,11.3,1,3.9,0.1,5.7,75.3,14.6,78.1,70939,40.3,-76.19460186,43.0061269
36113,New York,Warren,65599,1.4,0.3,1,0,3.1,92.8,32.2,78.1,69849,43.2,-73.84603737,43.56091887
37089,North Carolina,Henderson,118106,3.1,0.7,1.4,0.3,10.9,82.4,34.3,78.1,65252,39.9,-82.48021492,35.33655768
37129,North Carolina,New Hanover,234921,12.2,0.6,1.6,0.1,6.4,77.4,1.7,78.1,70995,35.8,-77.88474375,34.2322858
45019,South Carolina,Charleston,419279,23.8,0.4,2,0.1,5.6,66.7,9.1,78.1,79969,36.7,-79.95226654,32.83417041
46005,South Dakota,Beadle,19376,1,1.7,11.8,1.5,12.5,71,25.4,78.1,59508,51.7,-98.27883711,44.41467039
46009,South Dakota,Bon Homme,7062,1.3,8,0.3,0,3.3,86.1,100,78.1,62963,56.3,-97.88493814,42.98827986
46037,South Dakota,Day,5479,0.5,9.4,0.7,0,2.6,84.8,100,78.1,62786,54.4,-97.60737593,45.36728275
48195,Texas,Hansford,5151,0.9,1.9,0.5,0.1,50.1,47.2,100,78.1,69064,53.2,-101.3545796,36.27743284
49039,Utah,Sanpete,29724,1,1.7,0.9,0.7,9.4,85.8,82.2,78.1,65044,50.2,-111.5763852,39.37372605
51113,Virginia,Madison,14000,8.3,0.3,0.9,0,3.8,84,100,78.1,71697,41,-78.27950884,38.41366284
53001,Washington,Adams,20961,0.7,6.3,1.5,0.3,65.3,31.5,47.3,78.1,62410,47.7,-118.5603559,46.98352425
53053,Washington,Pierce,927380,7.4,1.8,7.6,1.9,12.6,63,6.8,78.1,92793,42,-122.1122121,47.02680625
55085,Wisconsin,Oneida,38212,0.5,1.3,0.6,0,1.7,94.6,74.3,78.1,62242,45.6,-89.52161421,45.70521979
55095,Wisconsin,Polk,45709,0.4,1.1,0.7,0,2,94.8,100,78.1,73982,47.4,-92.44123483,45.4615393
04011,Arizona,Greenlee,9302,1.6,4.8,1,0.1,48.8,44,100,78,76338,44.4,-109.2401561,33.21537146
12035,Florida,Flagler,126705,9.7,0.4,2.5,0.1,11.8,73.8,7.7,78,73336,40.2,-81.31358003,29.46163468
16027,Idaho,Canyon,251065,0.7,1.7,1.2,0.4,25.8,69.4,18.7,78,70594,41.6,-116.7092162,43.6251769
16051,Idaho,Jefferson,33428,0.3,1.2,0.5,0.2,10.9,86.3,66.7,78,76474,49.1,-112.3114205,43.82027224
17051,Illinois,Fayette,21305,6.8,0.4,0.4,0,2.4,89.2,62.3,78,57729,45.6,-89.02441763,39.0000587
17067,Illinois,Hancock,17244,0.9,0.4,0.3,0.1,2.1,95,84,78,63324,51.4,-91.16472529,40.40370799
18011,Indiana,Boone,74164,2.8,0.3,4.1,0,3.8,87.4,27.2,78,102805,42.6,-86.46866856,40.05117643
18171,Indiana,Warren,8461,0.5,0.4,0.5,0.1,2.5,95,100,78,73539,,-87.35336964,40.34704622
19145,Iowa,Page,15143,2.6,0.7,1.1,0.1,3.8,90.4,33.8,78,60567,50.5,-95.15010031,40.73917437
19163,Iowa,Scott,173924,7.9,0.4,3.1,0.1,7.5,78.3,13.3,78,68576,42.6,-90.62318822,41.63706131
20067,Kansas,Grant,7197,0.6,2.9,0.8,0,50.9,46.1,20.2,78,66022,47.7,-101.3079758,37.56227336
20153,Kansas,Rawlins,2528,0.6,1,0.6,0,8.3,88.1,100,78,59116,,-101.07618,39.78524494
26061,Michigan,Houghton,37035,1.1,0.8,2.5,0,1.9,92.4,45.2,78,55623,47.2,-88.68742993,46.89801075
27011,Minnesota,Big Stone,5144,0.5,0.9,0.4,0,2.2,94.9,100,78,57821,58.9,-96.41134505,45.42651259
31017,Nebraska,Brown,2872,0.5,1.8,0.2,0.1,5.6,90.7,100,78,55394,,-99.92949608,42.43016331
38093,North Dakota,Stutsman,21487,2,2.1,0.9,0.1,3.3,90.6,29.6,78,65633,53.5,-98.95894925,46.97927215
38105,North Dakota,Williams,38109,4.7,4.4,1.3,0.3,9.9,76.7,27.9,78,84145,61.6,-103.4801272,48.34373147
39107,Ohio,Mercer,42348,0.5,0.3,0.6,1,1.9,94.6,71.6,78,72077,51.5,-84.62929783,40.54030771
41007,Oregon,Clatsop,41695,0.7,1.5,1.6,0.3,9.5,84.2,39.1,78,63667,42.7,-123.6560294,45.99500314
42011,Pennsylvania,Berks,430449,4.4,1.1,1.7,0.2,24.5,68,26.6,78,72157,44.3,-75.92604322,40.41644424
46125,South Dakota,Turner,8856,0.6,1.1,0.4,0,2.7,94.5,100,78,74511,55.6,-97.14865776,43.3109081
48009,Texas,Archer,8835,1.1,1.7,0.7,0.1,9.4,86.2,87.4,78,72062,50,-98.68754589,33.61569967
51041,Virginia,Chesterfield,378408,24.5,0.6,3.9,0.1,10.7,58.1,8,78,100149,41.8,-77.58654268,37.37880418
56009,Wyoming,Converse,13786,0.5,1.4,0.6,0.1,8.7,87.9,52.7,78,78015,54.2,-105.5077277,42.9722826
12001,Florida,Alachua,284030,19.7,0.4,6.3,0.1,11.4,59.8,23.2,77.9,58783,38.1,-82.35823348,29.67497355
12057,Florida,Hillsborough,1513301,16.3,0.6,4.8,0.1,30.5,46,3.7,77.9,74091,38.7,-82.30867294,27.92948052
12103,Florida,Pinellas,961739,10.3,0.4,3.7,0.1,10.9,72.8,0.2,77.9,66427,39.6,-82.73164012,27.92895178
16039,Idaho,Elmore,29403,2.6,1.8,2.9,0.5,18.2,71.9,37.9,77.9,63009,44.1,-115.4691486,43.35417471
16043,Idaho,Fremont,13978,0.4,1.1,0.5,0.5,12.3,84.6,100,77.9,61115,49.6,-111.4821032,44.22898675
17031,Illinois,Cook,5109292,22.7,0.8,8.3,0.1,26.3,41.1,0.1,77.9,76614,38,-87.81698762,41.84005007
17035,Illinois,Cumberland,10324,0.6,0.2,0.7,0.1,1.4,95.8,100,77.9,79140,44,-88.24032182,39.27402319
18059,Indiana,Hancock,83070,4,0.4,1.2,0.1,3.4,89.3,27.7,77.9,87845,42.5,-85.77325696,39.82296118
18183,Indiana,Whitley,34627,0.6,0.4,0.5,0,2.6,94.5,69.1,77.9,72448,44.9,-85.50505208,41.13932767
19035,Iowa,Cherokee,11491,1.1,0.4,0.9,0.4,5.2,91.3,59.6,77.9,65985,55.1,-95.62389402,42.73538914
19129,Iowa,Mills,14553,0.7,0.8,0.4,0.1,4.1,92.9,65.4,77.9,75835,48.8,-95.62136125,41.03348848
20189,Kansas,Stevens,5175,0.7,1.7,0.6,0.3,38.9,57.9,100,77.9,69320,52.4,-101.3119048,37.19230822
24033,Maryland,Prince George's,946971,61.2,1.4,4.4,0.2,20.9,11.4,2.4,77.9,93833,40.2,-76.84739072,38.8299677
26033,Michigan,Chippewa,36293,6.1,16.6,0.7,0.1,2.3,69.4,51.1,77.9,58924,41.3,-84.56284345,46.30032406
26103,Michigan,Marquette,66661,1.4,2,0.8,0,1.8,92.1,45.5,77.9,61598,45.4,-87.64138782,46.43139896
27033,Minnesota,Cottonwood,11356,1.4,1,4.5,0.9,10.2,81.8,100,77.9,59981,54.5,-95.18136404,44.00720878
27107,Minnesota,Norman,6377,0.7,2.6,0.7,0,5.8,87.8,100,77.9,64319,51.3,-96.45566228,47.32618622
29029,Missouri,Camden,43768,0.8,0.8,0.7,0.1,3.4,93,56.3,77.9,63703,41.8,-92.76600464,38.02703414
35055,New Mexico,Taos,34580,0.5,8,1.1,0.1,56.3,36,54.6,77.9,48462,39.8,-105.630976,36.57834262
36117,New York,Wayne,91125,2.9,0.4,0.7,0.1,5,89,74.8,77.9,70917,42,-77.02965084,43.15652579
36123,New York,Yates,24451,0.9,0.3,0.8,0,2.2,94.8,68.6,77.9,62637,45.6,-77.10558958,42.63362823
38031,North Dakota,Foster,3378,0.5,1.7,0.5,0,2,94,100,77.9,83156,,-98.88279923,47.4571084
40027,Oklahoma,Cleveland,299587,5.5,5.4,4.8,0.1,10.3,69,15.7,77.9,70923,44.7,-97.3267069,35.20346872
41029,Oregon,Jackson,221644,0.8,1.7,1.7,0.4,14.9,78.4,20.6,77.9,68239,41,-122.728377,42.43216537
41039,Oregon,Lane,382353,1.1,1.6,3.2,0.3,10.1,80.2,18,77.9,64192,39.7,-122.8473327,43.93889441
42019,Pennsylvania,Butler,197300,1.3,0.2,1.7,0,1.9,93.7,43.3,77.9,81507,48.6,-79.91342345,40.91176277
42055,Pennsylvania,Franklin,156902,3.5,0.3,1.1,0.1,7,86.3,44.5,77.9,73709,46.2,-77.72158008,39.92745705
46015,South Dakota,Brule,5321,0.6,12,0.5,0,3.5,80.7,100,77.9,60133,50,-99.08125406,43.71816719
48201,Texas,Harris,4780913,19.3,1.2,7.5,0.1,44.6,27.1,1.1,77.9,68748,42.6,-95.39302715,29.85748873
48215,Texas,Hidalgo,888367,0.6,0.6,1.1,0.1,92.5,5.7,8.9,77.9,48825,44.1,-98.18144326,26.39667226
49003,Utah,Box Elder,61498,0.4,1.1,0.8,0.3,10.2,86.2,31.7,77.9,79450,48.4,-113.0821456,41.52095018
51043,Virginia,Clarke,15266,4.1,0.7,1.5,0.1,7.8,84,100,77.9,106914,45.4,-77.99656139,39.11236047
51087,Virginia,Henrico,333962,30,0.4,10.1,0.1,6.4,50.7,3.7,77.9,82187,41.3,-77.40505652,37.53796421
53009,Washington,Clallam,77805,0.9,5.8,2.1,0.2,7.6,81.3,36.1,77.9,66693,40.4,-123.9277111,48.04911666
55043,Wisconsin,Grant,51276,1.5,0.3,0.9,0,2.2,94.4,77.2,77.9,63247,51.5,-90.70630534,42.86757481
10005,Delaware,Sussex,255956,11,1.1,1.4,0.2,9.7,75.4,37.6,77.8,81188,37.9,-75.38998106,38.66089142
17037,Illinois,DeKalb,100232,8.7,0.5,2.8,0.1,13.2,73.3,21.8,77.8,71882,45.3,-88.76979995,41.8933691
17141,Illinois,Ogle,51351,1.2,0.4,0.7,0.1,11.5,85.1,67.9,77.8,78577,45.8,-89.32021067,42.04257451
18115,Indiana,Ohio,6114,0.9,0.2,0.3,0,2,95.3,100,77.8,70618,,-84.96502468,38.94996711
19015,Iowa,Boone,26609,1.2,0.5,0.6,0.1,3,93.7,53.2,77.8,74896,47,-93.93139995,42.0366177
19073,Iowa,Greene,8741,0.7,0.6,0.7,0,3.6,93,100,77.8,63562,48.5,-94.39658081,42.03614551
19107,Iowa,Keokuk,9904,0.8,0.4,0.4,0,2.2,95.2,100,77.8,65653,54.4,-92.1785067,41.33649833
19177,Iowa,Van Buren,7256,0.2,0.2,0.6,0,1.8,95.9,100,77.8,64550,50.4,-91.95043301,40.75308722
20053,Kansas,Ellsworth,6355,5.9,0.9,0.6,0,6.3,85,100,77.8,63636,54.8,-98.20501891,38.6967292
20093,Kansas,Kearny,3855,1,2.3,0.8,0.1,33.6,61.6,100,77.8,75773,,-101.3203923,38.00024973
20117,Kansas,Marshall,9982,0.6,0.7,0.4,0.1,3.3,92.8,100,77.8,58942,58.6,-96.52279918,39.78357355
20121,Kansas,Miami,34867,1.3,0.8,0.7,0.1,4,91.4,75.4,77.8,82606,47.9,-94.83822279,38.56363954
20193,Kansas,Thomas,7893,1.2,1.2,0.6,0.1,8.3,88,31.1,77.8,62916,56.8,-101.0553705,39.35107575
26067,Michigan,Ionia,66809,5.9,0.7,0.5,0,5.4,86.1,61,77.8,74391,41.5,-85.07413319,42.94502238
29043,Missouri,Christian,93114,0.9,1,0.9,0.1,3.7,91.7,42.2,77.8,73616,44.2,-93.18847844,36.96906632
29053,Missouri,Cooper,16772,5.4,0.7,0.7,0.1,2.2,88.8,53,77.8,63247,44.1,-92.80985416,38.84333073
29081,Missouri,Harrison,8199,0.5,0.6,0.5,0.1,2.8,94.1,100,77.8,51910,47.1,-93.99193402,40.35497608
30025,Montana,Fallon,3011,0.4,1.4,0.9,0.1,2,93.6,100,77.8,65637,,-104.417515,46.3343054
31049,Nebraska,Deuel,1902,0.4,2.1,0.4,0,8.9,88,100,77.8,56099,,-102.3338627,41.111546
31147,Nebraska,Richardson,7705,0.5,3.4,0.5,0,2.5,90.9,47.5,77.8,56121,51.7,-95.71768995,40.12499676
31169,Nebraska,Thayer,4885,0.6,0.4,0.3,0,3.3,94,100,77.8,61125,59.4,-97.59506372,40.17621044
34013,New Jersey,Essex,849477,37.7,0.9,6.6,0.2,24.6,29.5,0,77.8,74747,38.7,-74.24718209,40.78746195
36033,New York,Franklin,46373,2.7,8,0.6,0,2.8,84.9,70.2,77.8,59192,41.5,-74.30395769,44.59274379
37019,North Carolina,Brunswick,153064,8.9,0.8,0.8,0.1,5.3,82.6,36.4,77.8,73536,36.1,-78.23791614,34.07037851
37021,North Carolina,Buncombe,273589,5.8,0.6,1.5,0.2,7.5,82.7,22.3,77.8,67906,38.2,-82.53035424,35.6112775
37125,North Carolina,Moore,105531,10.7,1.2,1.8,0.2,7.7,77,49.5,77.8,84458,36.8,-79.48151986,35.31080558
37149,North Carolina,Polk,19986,3.8,0.7,1.2,0,6,87.2,91.4,77.8,61585,38.2,-82.17008141,35.27959223
38095,North Dakota,Towner,2064,0.3,5.4,0.6,0,3.6,88.6,100,77.8,70656,,-99.24564463,48.68566015
46027,South Dakota,Clay,15280,1.8,4,2.7,0.1,3.3,86.3,22.1,77.8,55263,49,-96.97560307,42.91461976
46101,South Dakota,Moody,6349,1.1,13.8,2.1,0.1,4.9,76,100,77.8,70603,50.6,-96.67091097,44.02224521
51019,Virginia,Bedford,80848,6.9,0.4,1.5,0,2.8,86.9,70.7,77.8,71135,42.1,-79.52391814,37.31502696
51047,Virginia,Culpeper,54381,13.1,0.9,1.9,0.1,13.6,68.2,57.1,77.8,94287,39.7,-77.95541958,38.48620048
51093,Virginia,Isle of Wight,40151,22.1,0.5,1.1,0.1,4.6,69.2,58.5,77.8,85227,38.3,-76.72465523,36.89191765
55005,Wisconsin,Barron,46843,1.7,1.2,0.7,0,3.2,92,78.3,77.8,62344,49.1,-91.84833604,45.42372695
55019,Wisconsin,Clark,34691,0.5,0.9,0.6,0,5.9,91.6,100,77.8,63641,52.7,-90.61207484,44.73483376
08095,Colorado,Phillips,4449,0.7,1.4,0.6,0.1,24.1,72.9,100,77.7,68571,,-102.3573987,40.59394842
13139,Georgia,Hall,212692,7.7,0.9,2.5,0.2,29.8,58.5,25.9,77.7,76789,39.1,-83.819838,34.31734176
16007,Idaho,Bear Lake,6722,0.3,1,0.5,0.1,4.4,92.7,100,77.7,66006,53.8,-111.3294847,42.28476453
16047,Idaho,Gooding,15715,0.3,2.4,0.9,0.3,30,66.7,100,77.7,59838,46.3,-114.8116615,42.97094353
17005,Illinois,Bond,16566,6.5,0.8,0.7,0.1,3.9,86.6,59.6,77.7,66071,43.3,-89.43566372,38.88688243
17015,Illinois,Carroll,15529,3.7,0.5,0.7,0,5.1,88.9,100,77.7,64157,46.8,-89.93380816,42.06794659
17073,Illinois,Henry,48419,1.8,0.3,0.5,0,6.6,89.4,49.8,77.7,70517,46.9,-90.13161776,41.35314875
17103,Illinois,Lee,33848,5.5,0.5,0.9,0.1,7.2,84.9,53.2,77.7,67371,45.2,-89.29939757,41.74622905
19053,Iowa,Decatur,7683,1.9,0.6,1,0.2,3.4,91.9,100,77.7,51749,46.4,-93.78630885,40.73762219
19087,Iowa,Henry,20196,2.9,0.5,2.4,0.1,5.6,87.2,54.7,77.7,63702,51.9,-91.54434433,40.98760854
19097,Iowa,Jackson,19324,0.9,0.4,0.5,0.9,1.9,94.4,68.7,77.7,64792,51.1,-90.57403934,42.17178419
19115,Iowa,Louisa,10677,1.4,0.8,3.6,0.2,16.5,77.2,100,77.7,70953,48.3,-91.25958262,41.21843405
20039,Kansas,Decatur,2689,1.1,1.2,0.3,0,4.9,91.1,100,77.7,51152,,-100.4593928,39.78469039
20111,Kansas,Lyon,31898,1.9,1.4,2.4,0.1,23.6,69.3,25.2,77.7,55863,45.5,-96.15280427,38.45580918
20113,Kansas,McPherson,30012,1.4,0.6,1,0.1,5.1,90.2,53.5,77.7,73766,49.1,-97.64761598,38.39187087
25005,Massachusetts,Bristol,580068,6.3,0.7,2.7,0.1,9.6,79.1,10.4,77.7,80702,44.5,-71.11419448,41.79709525
26077,Michigan,Kalamazoo,261173,11.4,0.5,2.9,0.1,5.8,76.1,21.6,77.7,69689,37.5,-85.53044157,42.24536002
26097,Michigan,Mackinac,10941,3.5,16.2,1.1,0,2.8,71.9,74.7,77.7,56942,44,-85.07704103,46.07858665
27009,Minnesota,Benton,41463,5.8,0.6,1.2,0.1,3.4,86.7,45,77.7,71493,54.7,-93.9984359,45.69827623
27137,Minnesota,St. Louis,199532,1.5,2.4,1.1,0.1,2,90.6,39.3,77.7,63141,45.3,-92.46951183,47.60334656
29045,Missouri,Clark,6723,0.5,0.3,0.4,0,1,96.1,100,77.7,63249,48,-91.73823977,40.41027674
29186,Missouri,Ste. Genevieve,18644,1.7,0.4,0.3,0.6,1.4,94.5,73,77.7,63786,45.2,-90.1946731,37.89454581
30015,Montana,Chouteau,5898,0.2,18.2,0.6,0.1,3.2,76.7,100,77.7,51137,51.8,-110.4356833,47.88028152
30029,Montana,Flathead,111814,0.3,1.3,1.1,0.1,3.6,91.7,51.5,77.7,66395,45.1,-114.0497122,48.29520088
33017,New Hampshire,Strafford,132275,1.3,0.3,3.9,0.1,3.1,89.5,36.7,77.7,82845,43.1,-71.02927319,43.29717653
36093,New York,Schenectady,160093,12.1,0.8,5.6,0.3,8,70.1,8.8,77.7,74206,41.5,-74.05833636,42.81832249
36099,New York,Seneca,32882,3.4,0.6,0.9,0,4.1,89.5,57.9,77.7,65354,45.4,-76.82362358,42.78068586
39173,Ohio,Wood,131592,2.6,0.3,2.1,0,6.3,87,30.1,77.7,67254,43.4,-83.62311366,41.36160162
42075,Pennsylvania,Lebanon,144011,2.1,0.4,2,0.1,15.3,79.3,25.4,77.7,69490,46.7,-76.45759104,40.36716938
42093,Pennsylvania,Montour,18091,2,0.3,3.6,0,3.2,89.7,54.3,77.7,76229,43.9,-76.65904667,41.02752391
42115,Pennsylvania,Susquehanna,38074,0.7,0.2,0.4,0.1,2.1,95.5,100,77.7,63413,49,-75.80090451,41.82127676
42133,Pennsylvania,York,461058,6.2,0.4,1.7,0.1,9.2,80.7,28.5,77.7,79938,44.2,-76.72634152,39.92001283
48285,Texas,Lavaca,20589,5.8,0.7,0.6,0.1,20.5,71.9,82.4,77.7,58400,52,-96.93033343,29.38395052
48413,Texas,Schleicher,2357,1.5,1.4,0.6,0,55.2,41.5,100,77.7,54168,,-100.5384877,30.89734895
48425,Texas,Somervell,9757,1,1.7,1.1,0.1,17.9,77.7,100,77.7,75568,48.5,-97.77458843,32.22235362
53045,Washington,Mason,68166,1.4,4.7,1.6,0.5,12.1,77.9,69.5,77.7,78029,41.9,-123.1920342,47.34793175
55081,Wisconsin,Monroe,46109,1.5,1.5,1,0.1,5.3,89.6,56.8,77.7,65232,47,-90.61820195,43.94576215
55115,Wisconsin,Shawano,40886,0.5,8.9,0.6,0.1,3.3,85.5,70.1,77.7,66733,48.4,-88.76489325,44.78886999
12131,Florida,Walton,83304,4.9,0.8,1.4,0.2,7.1,83.7,56.1,77.6,78814,39.5,-86.17009489,30.64341925
13133,Georgia,Greene,20139,29.5,0.9,1.3,0.1,7,60.7,100,77.6,74488,33.2,-83.16678441,33.57887215
16029,Idaho,Caribou,7190,0.3,0.7,0.5,0.3,7.5,89.8,100,77.6,70354,53.4,-111.5621762,42.77049766
20105,Kansas,Lincoln,2899,0.7,0.9,0.6,0,4.2,92.4,100,77.6,58049,,-98.20749,39.04547506
22005,Louisiana,Ascension,130458,24.8,0.5,1.5,0.1,6.5,65.7,10.8,77.6,81284,42.1,-90.91101939,30.20335229
26005,Michigan,Allegan,121210,1.3,0.7,0.9,0.1,8,87.4,67.6,77.6,75893,43,-85.88845897,42.59147142
26019,Michigan,Benzie,18297,0.7,1.5,0.5,0,2.5,93.3,85.5,77.6,65846,41.4,-86.01505847,44.63910932
26045,Michigan,Eaton,108992,7,0.6,2.5,0.1,6.1,81.5,38,77.6,71499,42,-84.83740035,42.59599185
26133,Michigan,Osceola,23274,1,0.8,0.4,0.1,2.6,93.4,100,77.6,54727,43,-85.32556471,43.98998373
29037,Missouri,Cass,110394,5,0.7,0.9,0.1,5.1,85.9,29.7,77.6,77805,44.9,-94.35504883,38.64793026
31001,Nebraska,Adams,30970,1,1.5,1.4,0.2,12.3,83.6,20.5,77.6,64212,49.7,-98.50117804,40.5244942
31097,Nebraska,Johnson,5287,6.9,1.6,1.2,0,10.6,78.9,100,77.6,60549,,-96.26520163,40.39252282
31121,Nebraska,Merrick,7721,0.5,1,1,0.1,5.8,90.9,100,77.6,68754,51.4,-98.03760529,41.16916952
36089,New York,St. Lawrence,107733,1.9,1.1,1.2,0.1,2.4,92.2,66.9,77.6,59451,44.7,-75.06907698,44.49647794
37025,North Carolina,Cabarrus,235797,20.5,0.7,6.5,0.1,11.9,58.7,17.3,77.6,79649,35.7,-80.55133048,35.38756942
37029,North Carolina,Camden,11088,9.5,0.6,1.8,0.1,4.3,80.9,94.8,77.6,82620,37.5,-76.20583468,36.38675278
37177,North Carolina,Tyrrell,3365,29.7,1.3,2,0,12.6,53.1,100,77.6,42514,,-76.20702207,35.81805644
38041,North Dakota,Hettinger,2406,0.8,3.3,0.3,0.2,1.9,91.7,100,77.6,66192,,-102.4607133,46.43276791
38055,North Dakota,McLean,9824,0.5,7.7,0.5,0.1,2.9,87.7,100,77.6,79935,54.3,-101.3219684,47.60697344
38101,North Dakota,Ward,68870,4.4,2.8,1.8,0.2,7,81.4,27.2,77.6,72091,54.1,-101.541865,48.22179884
40017,Oklahoma,Canadian,169149,4.4,5.1,3.4,0.1,11.6,71.8,19.5,77.6,81761,46.9,-97.98241218,35.54233821
42015,Pennsylvania,Bradford,59866,0.8,0.3,0.8,0,1.7,95.3,73,77.6,63529,49.1,-76.515651,41.78867556
42045,Pennsylvania,Delaware,575182,22.7,0.2,6.7,0.1,4.7,63.7,0.8,77.6,83856,43.8,-75.39915513,39.9166501
42061,Pennsylvania,Huntingdon,43281,5.1,0.2,0.8,0,2.1,90.7,74.3,77.6,58170,46.9,-77.98140696,40.41688617
46051,South Dakota,Grant,7463,0.8,1.3,0.5,0.1,5,91.8,100,77.6,70409,52.4,-96.76789112,45.17218979
48297,Texas,Live Oak,11428,6,1.5,1.1,0.2,41.5,49.9,100,77.6,58576,48.8,-98.12498408,28.35137771
51011,Virginia,Appomattox,16748,17.6,0.4,0.4,0.1,2.4,76.8,100,77.6,62375,37.1,-78.81172877,37.37242345
51049,Virginia,Cumberland,9746,28.8,0.8,0.6,0,3.4,64.4,93.3,77.6,55257,,-78.24455011,37.51182231
51063,Virginia,Floyd,15619,1.9,0.3,0.5,0,2.9,92.7,100,77.6,62561,43,-80.36184172,36.93162812
51125,Virginia,Nelson,14652,10.3,0.6,1,0,4.9,81.2,100,77.6,66612,41.6,-78.88692463,37.7874546
53025,Washington,Grant,101311,1.1,2.7,1.3,0.3,43.6,51.4,44.9,77.6,63809,44.4,-119.4513964,47.20582642
56043,Wyoming,Washakie,7719,0.4,1.7,0.9,0.1,14.2,82.1,36.4,77.6,60699,47.5,-107.6823145,43.90437841
06063,California,Plumas,19351,0.9,3.2,1.1,0.2,10.5,81.9,100,77.5,66725,44,-120.8382348,40.00422172
06101,California,Sutter,98503,2.1,2.4,18.2,0.4,33.3,42.3,15.1,77.5,66071,44.6,-121.6946189,39.03464654
08001,Colorado,Adams,527575,3.5,2.4,4.7,0.3,42.4,46.8,4,77.5,89849,41.7,-104.3375808,39.87357077
08017,Colorado,Cheyenne,1732,1.1,1.8,2.1,0.1,13,80.9,100,77.5,62891,,-102.6036365,38.82780723
12073,Florida,Leon,297369,31.7,0.4,3.7,0.1,7.3,54.8,13.4,77.5,61560,37.8,-84.27761309,30.45806493
13223,Georgia,Paulding,178421,24.4,0.5,1.5,0.1,8.6,62.9,20.5,77.5,87459,38.2,-84.86736714,33.92082846
18013,Indiana,Brown,15570,0.7,0.5,0.5,0,2.1,94.8,100,77.5,74161,44.1,-86.22810056,39.19645662
18127,Indiana,Porter,174791,4.6,0.4,1.5,0,11.3,80.9,23.6,77.5,84352,44.8,-87.06793187,41.46066332
19079,Iowa,Hamilton,14820,0.9,0.6,2.4,0.1,7.1,87.7,49.4,77.5,68795,49.4,-93.70672502,42.38395377
19153,Iowa,Polk,501089,7.6,0.4,5.2,0.1,9.4,75.2,4.5,77.5,77369,42.6,-93.57365396,41.68547042
20123,Kansas,Mitchell,5738,0.4,0.6,0.8,0.2,3.7,92.6,100,77.5,63929,56.9,-98.20900663,39.39334518
20175,Kansas,Seward,21358,2.9,1.6,2.5,0.2,66.2,26.8,9.7,77.5,63579,45.9,-100.850601,37.19327656
24037,Maryland,St. Mary's,114877,15,0.5,3,0.1,6,72.2,56.7,77.5,112154,44.3,-76.60613989,38.3016848
29051,Missouri,Cole,76969,11.4,0.4,1.5,0.1,3.3,81.3,34.3,77.5,70837,43.9,-92.28161601,38.50579587
29129,Missouri,Mercer,3437,0.4,0.6,0.8,0,3.4,93.2,100,77.5,49715,,-93.56850616,40.42251333
31035,Nebraska,Clay,6049,0.7,1.5,0.3,0.3,9.6,87.9,100,77.5,64251,55.9,-98.05126296,40.52439441
31043,Nebraska,Dakota,21042,8.1,4.5,3.5,0.9,40.6,43.2,20.6,77.5,65986,49.2,-96.56465437,42.39108493
31047,Nebraska,Dawson,23884,6.8,2.4,1.5,0.5,35.2,55.3,56.7,77.5,62089,49.3,-99.81946635,40.86987625
31101,Nebraska,Keith,8269,0.9,1,0.7,0,8,88.6,43.4,77.5,60608,51.9,-101.6614388,41.19906619
36003,New York,Allegany,46694,1.4,0.4,1.2,0,2,93.8,88.5,77.5,55466,43.9,-78.02730689,42.25731952
36025,New York,Delaware,44740,1.8,0.4,1.3,0.1,4.7,90.6,90.5,77.5,61424,45.5,-74.96687059,42.19791446
36029,New York,Erie,950312,13.1,0.8,4.8,0.1,6.1,73.5,10.3,77.5,69888,42.6,-78.73230753,42.76409998
36037,New York,Genesee,57535,2.6,1.2,0.7,0,3.7,90.1,62.1,77.5,68973,44.6,-78.19407819,43.00056703
36097,New York,Schuyler,17650,1,0.4,0.6,0,2,94.4,100,77.5,63233,44.3,-76.8749143,42.39369114
36115,New York,Washington,60841,2.5,0.4,0.6,0,3,92.3,75.5,77.5,67013,43.5,-73.430748,43.31320642
39057,Ohio,Greene,168456,6.9,0.3,3.2,0.1,3.3,83.2,22.4,77.5,82769,38.9,-83.88969073,39.69132786
39085,Ohio,Lake,231842,5.3,0.2,1.6,0,5.2,86.1,7.5,77.5,76163,43.4,-81.23712921,41.69689265
41049,Oregon,Morrow,12300,0.7,2.4,0.9,0.3,39.6,55.8,100,77.5,67524,44.3,-119.5837591,45.41897957
42037,Pennsylvania,Columbia,64926,1.8,0.3,1.1,0.1,3.9,91.9,44.7,77.5,59127,46.7,-76.4051503,41.04903639
42089,Pennsylvania,Monroe,167198,14.3,0.7,2.8,0.1,18.8,61.8,56.8,77.5,79824,44.3,-75.33930212,41.05812363
46061,South Dakota,Hanson,3461,0.5,0.9,0.4,0,1.4,95,100,77.5,79488,,-97.78704306,43.67458361
48019,Texas,Bandera,22115,1.2,1.6,0.7,0.1,21.8,74.1,100,77.5,69284,47,-99.24640517,29.74699689
48039,Texas,Brazoria,388181,16,0.9,7.5,0.1,32.5,42.1,22.6,77.5,86197,45.4,-95.45158629,29.18949785
48271,Texas,Kinney,3128,1.9,2.4,1.1,0.3,62.5,31,100,77.5,52609,,-100.4179055,29.35014052
48439,Texas,Tarrant,2154595,18,0.9,6.2,0.3,30.5,42.8,1.2,77.5,76285,41,-97.29099289,32.77145377
48477,Texas,Washington,36159,15.9,0.7,1.7,0.1,17.9,62.8,51.4,77.5,66911,41.6,-96.40341594,30.21441875
50005,Vermont,Caledonia,30579,0.8,0.5,1.1,0,2.1,93.9,83.8,77.5,61554,43.8,-72.10243367,44.46487758
51163,Virginia,Rockbridge,22593,3.4,0.7,0.8,0,2.2,91.2,90.1,77.5,64393,44.8,-79.44774612,37.81505482
06025,California,Imperial,178713,2.3,2.6,2.1,0.2,86.1,9.1,18.4,77.4,55523,44,-115.3657218,33.03935669
06039,California,Madera,160256,3,4.5,3,0.3,60.8,31,38.6,77.4,71273,41.7,-119.7624357,37.21825802
09015,Connecticut,Windham,116418,2,0.8,1.5,0.1,12.7,81.6,50.6,77.4,71581,42.9,-71.98737539,41.83006633
10003,Delaware,New Castle,575494,26,0.5,6.3,0.1,11.3,53.8,6.1,77.4,85427,37.1,-75.64791441,39.58150592
12069,Florida,Lake,410139,11.1,0.6,2.4,0.2,18.7,65.6,17.9,77.4,67637,38.1,-81.71135257,28.76121706
13281,Georgia,Towns,12972,1,0.4,0.9,0,2.7,93.9,100,77.4,59273,,-83.73739141,34.91666684
16063,Idaho,Lincoln,5329,0.4,2.4,0.7,0.4,32.6,63.7,100,77.4,61658,,-114.1383193,43.00232711
17049,Illinois,Effingham,34325,0.6,0.3,0.8,0,2.3,95.3,59.6,77.4,74800,50.3,-88.58969703,39.05935691
17179,Illinois,Tazewell,129911,1.5,0.4,1,0,2.8,93,21.8,77.4,73285,43.9,-89.51334003,40.50758831
20085,Kansas,Jackson,13286,1,8.8,0.6,0,5.7,82.7,100,77.4,70445,48.6,-95.79433878,39.41641542
20145,Kansas,Pawnee,6179,5.9,1.1,0.7,0.1,7.8,82.6,40.3,77.4,47939,47.8,-99.23682021,38.18106307
21067,Kentucky,Fayette,320347,15.7,0.3,4.4,0.1,7.6,69.4,2.9,77.4,63667,35.6,-84.4589719,38.04287124
27115,Minnesota,Pine,29446,1.9,3.2,1,0,3.2,88.8,100,77.4,65139,46.5,-92.74140502,46.12071071
27119,Minnesota,Polk,30731,2.7,2,1,0.1,7.1,85.6,46.5,77.4,69538,51.5,-96.40222842,47.77395991
28121,Mississippi,Rankin,158979,22.5,0.2,1.4,0.1,2.8,71.9,33,77.4,72906,41.1,-89.94594839,32.26422272
31161,Nebraska,Sheridan,4996,0.6,11.2,0.9,0.2,6.7,79.4,100,77.4,55388,52.6,-102.4088866,42.50454159
35033,New Mexico,Mora,4169,0.4,3.9,0.7,0,80.4,17.5,100,77.4,45155,,-104.944561,36.00972846
40145,Oklahoma,Wagoner,86644,3.7,10.4,2.2,0.1,8.3,68.7,36.4,77.4,73851,44.5,-95.52115154,35.96138606
46129,South Dakota,Walworth,5265,0.4,14.8,1.8,0,2.1,78.2,100,77.4,57100,46.7,-100.0313401,45.42998641
47127,Tennessee,Moore,6742,2.3,0.4,1.6,0.1,2,92.2,99.9,77.4,68086,,-86.35914773,35.28548298
48015,Texas,Austin,31097,8.5,1,1,0,28.9,60,78.8,77.4,68630,46.1,-96.27800561,29.88707804
48021,Texas,Bastrop,106188,6.1,2.1,1,0.2,43.4,47.6,72,77.4,73403,41.7,-97.31201625,30.10367452
48053,Texas,Burnet,52502,1.7,1.3,1.1,0.1,23.1,72.4,67.3,77.4,74897,43.2,-98.18244138,30.78852336
48143,Texas,Erath,43895,1.9,1.5,1.2,0.1,22.2,72.8,51,77.4,60093,47.7,-98.21770884,32.23614282
48149,Texas,Fayette,24913,5.5,1.5,0.7,0.1,22.5,70.1,79.5,77.4,70476,50.4,-96.91986981,29.87663549
49023,Utah,Juab,12567,0.4,1.3,0.5,0.3,5.8,90.6,46.3,77.4,94181,51,-112.7847328,39.70284831
49057,Utah,Weber,269561,1.3,1.4,1.7,0.4,19.2,74.9,5.6,77.4,83465,44.4,-111.9127797,41.27005573
51610,Virginia,Falls Church City,14586,4.5,0.7,9.9,0.1,11.6,69.4,0,77.4,142513,47.3,-77.17519332,38.88441803
53003,Washington,Asotin,22508,0.9,2,1.1,0.5,5,88.5,7.3,77.4,65625,40.4,-117.2027907,46.19177089
53049,Washington,Pacific,24113,0.8,2.7,2.1,0.2,10.5,81.4,62.9,77.4,55615,42.5,-123.7057228,46.55547971
53063,Washington,Spokane,549690,2,1.9,2.5,0.7,6.9,82.6,14.6,77.4,69079,41.9,-117.4039405,47.62077953
06031,California,Kings,152981,6.2,3.3,4.5,0.4,57.3,29.2,10.9,77.3,63683,42.2,-119.8151995,36.07520008
13085,Georgia,Dawson,30138,1.5,0.6,1.2,0.1,6.8,88.7,69.4,77.3,84551,38.2,-84.17073385,34.44409815
13249,Georgia,Schley,4496,19.4,0.2,1,0,6.7,71,100,77.3,57510,,-84.31547114,32.26331654
16053,Idaho,Jerome,25311,0.4,2.3,0.6,0.3,39,58.3,48.8,77.3,61509,45.2,-114.2642648,42.68974614
17013,Illinois,Calhoun,4360,0.6,0.3,0.4,0,1.8,96.1,100,77.3,68525,,-90.66743491,39.16895789
17109,Illinois,McDonough,26861,5.6,0.5,2.4,0,3.2,86.8,42.5,77.3,52812,48.2,-90.67775541,40.45674722
17167,Illinois,Sangamon,194534,13.6,0.3,2.4,0,2.7,78.5,18.9,77.3,73684,39.4,-89.65883945,39.75818327
19065,Iowa,Fayette,19294,1.4,0.4,1.2,0.1,3.2,92.5,69.9,77.3,56599,53.9,-91.84419994,42.8627134
19083,Iowa,Hardin,16567,1.5,0.6,1,0.1,4.8,91.3,70,77.3,59622,53.3,-93.24040527,42.38393029
19151,Iowa,Pocahontas,7053,1.1,0.7,0.5,1,5.2,90.6,100,77.3,61927,58.3,-94.67862564,42.73420133
20103,Kansas,Leavenworth,82892,8.1,0.9,1.6,0.2,7.8,78.6,33.2,77.3,79117,41.1,-95.03795118,39.19957457
23007,Maine,Franklin,30474,0.6,0.5,0.5,0.1,1.7,94.8,100,77.3,52159,46.1,-70.44421037,44.97424486
23027,Maine,Waldo,40241,0.6,0.5,0.7,0,1.7,95.1,90.5,77.3,63619,39.4,-69.14427892,44.50136648
25003,Massachusetts,Berkshire,127859,3.4,0.4,1.8,0.1,5.5,86.8,34.7,77.3,71102,42.5,-73.2062907,42.37045737
26113,Michigan,Missaukee,15213,0.6,0.8,0.7,0,3.4,93.2,100,77.3,59230,44.2,-85.09471001,44.33770935
26153,Michigan,Schoolcraft,8188,0.4,9.3,0.3,0,1.7,84.8,100,77.3,56707,43.5,-86.19985664,46.19666734
27017,Minnesota,Carlton,36708,1.9,5.7,0.7,0,2,87.6,63.5,77.3,78478,45.4,-92.67716012,46.592321
27133,Minnesota,Rock,9537,1,0.9,0.8,0.1,3.5,92.5,50.5,77.3,69835,52.8,-96.25305709,43.67485346
29063,Missouri,DeKalb,11336,8.3,0.7,0.5,0.1,2.9,86.6,69.9,77.3,66880,48,-94.40452876,39.89285656
30091,Montana,Sheridan,3564,0.3,2.5,0.8,0,4,90.2,100,77.3,62982,,-104.5046932,48.72121163
32031,Nevada,Washoe,496745,2.5,2.3,6.3,0.8,26.2,60.2,4.2,77.3,80245,41.1,-119.6643222,40.66566815
35043,New Mexico,Sandoval,153501,2.1,14.1,2,0.2,41.4,40.9,19.2,77.3,82862,38.1,-106.8658272,35.68909544
36005,New York,Bronx,1379946,29.1,3.1,4.8,0.4,56.6,8.7,0,77.3,45864,38.5,-73.8615688,40.85091824
36045,New York,Jefferson,116637,5.8,0.7,1.9,0.4,8,80.7,49.4,77.3,58763,43.2,-75.93125006,44.04796973
39123,Ohio,Ottawa,39978,0.9,0.3,0.4,0.1,5.5,91.6,62.5,77.3,72780,44.6,-83.10923872,41.5370554
42043,Pennsylvania,Dauphin,288800,16.8,0.5,6.9,0.1,11.1,62.1,14.8,77.3,67813,40.1,-76.77925448,40.41555232
48061,Texas,Cameron,425208,0.5,0.7,0.9,0.1,89.8,8.5,17.6,77.3,49583,43.5,-97.51397873,26.13427178
48113,Texas,Dallas,2600840,22.9,1.1,7.2,0.1,41.5,26.8,0.6,77.3,70871,39.1,-96.77788947,32.76665041
49027,Utah,Millard,13330,0.3,2.2,1.7,0.2,12.8,82.6,100,77.3,67318,51.1,-113.1003083,39.07403971
50003,Vermont,Bennington,37392,1.3,0.4,1.4,0,2.6,92.8,63.2,77.3,69249,42.6,-73.09291531,43.03531126
